fid,BEPLA_ARZTGRUPPE,LO_STRASSE,LO_PLZ,LO_ORT,LO_LANDKREIS,geocode_input_text,geocode_latitude,geocode_longitude,geocode_confidence,geocode_match_type,improved_status,improved_query_variant,improved_score,improved_latitude,improved_longitude,improved_confidence,improved_match_type,improved_accuracy,improved_label,improved_layer,improved_source,improved_error
1,Hausärzte,Herrenstr. 29,88353,Kißlegg,Ravensburg,"Herrenstr. 29, Kißlegg, 88353",47.787894,9.883439,1,exact,OK,"Herrenstr. 29, Kißlegg, 88353",430.0,47.787894,9.883439,1,exact,point,"Herrenstraße 29, Kißlegg, BW, Deutschland",address,openstreetmap,
2,Hausärzte,Rümelinstr. 7,88213,Ravensburg,Ravensburg,"Rümelinstr. 7, Ravensburg, 88213",47.782199,9.570811,1,exact,OK,"Rümelinstr. 7, Ravensburg, 88213",430.0,47.782199,9.570811,1,exact,point,"Rümelinstraße 7, Ravensburg, BW, Deutschland",address,openstreetmap,
8,Hausärzte,Faberstr. 13/1,88074,Meckenbeuren,Bodenseekreis,"Faberstr. 13/1, Meckenbeuren, 88074",47.703533,9.552107,1,exact,OK,"Faberstr. 13/1, Meckenbeuren, 88074",430.0,47.703533,9.552107,1,exact,point,"Faberstraße 13/1, Meckenbeuren, BW, Deutschland",address,openstreetmap,
11,Hausärzte,Bauhofstr. 5,88273,Fronreute,Ravensburg,"Bauhofstr. 5, Fronreute, 88273",47.861133,9.59139,1,exact,OK,"Bauhofstr. 5, Fronreute, 88273",430.0,47.861133,9.59139,1,exact,point,"Bauhofstraße 5, Fronreute, BW, Deutschland",address,openstreetmap,
12,Hausärzte,Emmelhofer Str. 7,88353,Kißlegg,Ravensburg,"Emmelhofer Str. 7, Kißlegg, 88353",47.788967,9.885845,1,exact,OK,"Emmelhofer Str. 7, Kißlegg, 88353",432.0,47.788967,9.885845,1,exact,point,"Emmelhofer Straße 7, Kißlegg, BW, Deutschland",address,openstreetmap,
18,Hausärzte,Radolfzeller Str. 65,78476,Allensbach,Konstanz,"Radolfzeller Str. 65, Allensbach, 78476",47.718736,9.058857,1,exact,OK,"Radolfzeller Str. 65, Allensbach, 78476",432.0,47.718736,9.058857,1,exact,point,"Radolfzeller Straße 65, Allensbach, BW, Deutschland",address,openstreetmap,
21,Hausärzte,Radolfzeller Str. 36,78476,Allensbach,Konstanz,"Radolfzeller Str. 36, Allensbach, 78476",47.718533,9.06136,1,exact,OK,"Radolfzeller Str. 36, Allensbach, 78476",432.0,47.718533,9.06136,1,exact,point,"Radolfzeller Straße 36, Allensbach, BW, Deutschland",address,openstreetmap,
22,Hausärzte,Mariabrunnstr. 71,88097,Eriskirch,Bodenseekreis,"Mariabrunnstr. 71, Eriskirch, 88097",47.633199,9.539456,1,exact,OK,"Mariabrunnstr. 71, Eriskirch, 88097",430.0,47.633199,9.539456,1,exact,point,"Mariabrunnstraße 71, Eriskirch, BW, Deutschland",address,openstreetmap,
24,Hausärzte,Rebweg 13,78465,Konstanz,Konstanz,"Rebweg 13, Konstanz, 78465",47.736401,9.115522,1,exact,OK,"Rebweg 13, Konstanz, 78465",432.0,47.736401,9.115522,1,exact,point,"Rebweg 13, Konstanz, BW, Deutschland",address,openstreetmap,
27,Hausärzte,An der Halde 9,88267,Vogt,Ravensburg,"An der Halde 9, Vogt, 88267",47.777432,9.76236,1,exact,OK,"An der Halde 9, Vogt, 88267",432.0,47.777432,9.76236,1,exact,point,"An der Halde 9, Vogt, BW, Deutschland",address,openstreetmap,
29,Hausärzte,Virchowstr. 10 c,78224,Singen (Hohentwiel),Konstanz,"Virchowstr. 10 c, Singen (Hohentwiel), 78224",47.759411,8.821812,1,exact,OK,"Virchowstr. 10 c, Singen (Hohentwiel), 78224",430.0,47.759411,8.821812,1,exact,point,"Virchowstraße 10, Singen (Hohentwiel), BW, Deutschland",address,openstreetmap,
30,Hausärzte,Virchowstr. 10,78224,Singen (Hohentwiel),Konstanz,"Virchowstr. 10, Singen (Hohentwiel), 78224",47.759411,8.821812,1,exact,OK,"Virchowstr. 10, Singen (Hohentwiel), 78224",430.0,47.759411,8.821812,1,exact,point,"Virchowstraße 10, Singen (Hohentwiel), BW, Deutschland",address,openstreetmap,
31,Hausärzte,Schaffhauser Str. 25,79865,Grafenhausen,Waldshut,"Schaffhauser Str. 25, Grafenhausen, 79865",47.773448,8.260666,1,exact,OK,"Schaffhauser Str. 25, Grafenhausen, 79865",432.0,47.773448,8.260666,1,exact,point,"Schaffhauser Straße 25, Grafenhausen, BW, Deutschland",address,openstreetmap,
33,Hausärzte,Unterdorfstr. 3,78253,Eigeltingen,Konstanz,"Unterdorfstr. 3, Eigeltingen, 78253",47.857662,8.898972,1,exact,OK,"Unterdorfstr. 3, Eigeltingen, 78253",430.0,47.857662,8.898972,1,exact,point,"Unterdorfstraße 3, Eigeltingen, BW, Deutschland",address,openstreetmap,
34,Hausärzte,Strandbadstr. 16,78479,Reichenau,Konstanz,"Strandbadstr. 16, Reichenau, 78479",47.702667,9.059339,1,exact,OK,"Strandbadstr. 16, Reichenau, 78479",430.0,47.702667,9.059339,1,exact,point,"Strandbadstraße 16, Reichenau, BW, Deutschland",address,openstreetmap,
35,Hausärzte,Josef-Strobel-Str. 20,88213,Ravensburg,Ravensburg,"Josef-Strobel-Str. 20, Ravensburg, 88213",47.755154,9.57712,1,exact,OK,"Josef-Strobel-Str. 20, Ravensburg, 88213",432.0,47.755154,9.57712,1,exact,point,"Josef-Strobel-Straße 20, Ravensburg, BW, Deutschland",address,openstreetmap,
38,Hausärzte,Hibiskusweg 1,88074,Meckenbeuren,Bodenseekreis,"Hibiskusweg 1, Meckenbeuren, 88074",47.692048,9.561781,1,exact,OK,"Hibiskusweg 1, Meckenbeuren, 88074",432.0,47.692048,9.561781,1,exact,point,"Hibiskusweg 1, Meckenbeuren, BW, Deutschland",address,openstreetmap,
39,Hausärzte,Dr.-Franz-Reich-Str. 7,88353,Kißlegg,Ravensburg,"Dr.-Franz-Reich-Str. 7, Kißlegg, 88353",47.788074,9.881124,1,exact,OK,"Dr.-Franz-Reich-Str. 7, Kißlegg, 88353",432.0,47.788074,9.881124,1,exact,point,"Dr.-Franz-Reich-Straße 7, Kißlegg, BW, Deutschland",address,openstreetmap,
41,Hausärzte,Kurpfalzstr. 72,74889,Sinsheim,Rhein-Neckar-Kreis,"Kurpfalzstr. 72, Sinsheim, 74889",49.25415,8.894098,1,exact,OK,"Kurpfalzstr. 72, Sinsheim, 74889",430.0,49.25415,8.894098,1,exact,point,"Kurpfalzstraße 72, Sinsheim, BW, Deutschland",address,openstreetmap,
43,Hausärzte,Zwingergasse 6,74889,Sinsheim,Rhein-Neckar-Kreis,"Zwingergasse 6, Sinsheim, 74889",49.251758,8.876959,1,exact,OK,"Zwingergasse 6, Sinsheim, 74889",432.0,49.251758,8.876959,1,exact,point,"Zwingergasse 6, Sinsheim, BW, Deutschland",address,openstreetmap,
45,Hausärzte,Obere Riedstr. 12,68309,Mannheim,Mannheim,"Obere Riedstr. 12, Mannheim, 68309",49.512784,8.515942,1,exact,OK,"Obere Riedstr. 12, Mannheim, 68309",430.0,49.512784,8.515942,1,exact,point,"Obere Riedstraße 12, Mannheim, BW, Deutschland",address,openstreetmap,
46,Hausärzte,Staigstr. 13,76229,Karlsruhe,"Karlsruhe, Stadt","Staigstr. 13, Karlsruhe, 76229",49.003621,8.501224,1,exact,OK,"Staigstr. 13, Karlsruhe, 76229",430.0,49.003621,8.501224,1,exact,point,"Staigstraße 13, Karlsruhe, BW, Deutschland",address,openstreetmap,
48,Hausärzte,Im Schnarz 40,78585,Bubsheim,Tuttlingen,"Im Schnarz 40, Bubsheim, 78585",48.113348,8.825112,1,exact,OK,"Im Schnarz 40, Bubsheim, 78585",432.0,48.113348,8.825112,1,exact,point,"Im Schnarz 40, Bubsheim, BW, Deutschland",address,openstreetmap,
50,Hausärzte,Hauptstr. 71,74889,Sinsheim,Rhein-Neckar-Kreis,"Hauptstr. 71, Sinsheim, 74889",49.253729,8.876262,1,exact,OK,"Hauptstr. 71, Sinsheim, 74889",430.0,49.253729,8.876262,1,exact,point,"Hauptstraße 71, Sinsheim, BW, Deutschland",address,openstreetmap,
52,Hausärzte,Stahläckerweg 4,75365,Calw,Calw,"Stahläckerweg 4, Calw, 75365",48.713305,8.721426,1,exact,OK,"Stahläckerweg 4, Calw, 75365",432.0,48.713305,8.721426,1,exact,point,"Stahläckerweg 4, Calw, BW, Deutschland",address,openstreetmap,
54,Hausärzte,Wallstadter Str. 46,68526,Ladenburg,Rhein-Neckar-Kreis,"Wallstadter Str. 46, Ladenburg, 68526",49.476597,8.606586,1,exact,OK,"Wallstadter Str. 46, Ladenburg, 68526",432.0,49.476597,8.606586,1,exact,point,"Wallstadter Straße 46, Ladenburg, BW, Deutschland",address,openstreetmap,
57,Hausärzte,Im Speitel 56,76229,Karlsruhe,"Karlsruhe, Stadt","Im Speitel 56, Karlsruhe, 76229",49.007447,8.505716,1,exact,OK,"Im Speitel 56, Karlsruhe, 76229",432.0,49.007447,8.505716,1,exact,point,"Im Speitel 56, Karlsruhe, BW, Deutschland",address,openstreetmap,
58,Hausärzte,Lorenz-Brentano-Allee 4,68753,Waghäusel,"Karlsruhe, Land","Lorenz-Brentano-Allee 4, Waghäusel, 68753",49.250479,8.507298,1,exact,OK,"Lorenz-Brentano-Allee 4, Waghäusel, 68753",432.0,49.250479,8.507298,1,exact,point,"Lorenz-Brentano-Allee 4, Waghäusel, BW, Deutschland",address,openstreetmap,
61,Hausärzte,Obere Au 22,76646,Bruchsal,"Karlsruhe, Land","Obere Au 22, Bruchsal, 76646",49.079572,8.580195,1,exact,OK,"Obere Au 22, Bruchsal, 76646",432.0,49.079572,8.580195,1,exact,point,"Obere Au 22, Bruchsal, BW, Deutschland",address,openstreetmap,
64,Hausärzte,Wilhelmstr. 15,74889,Sinsheim,Rhein-Neckar-Kreis,"Wilhelmstr. 15, Sinsheim, 74889",49.254356,8.879072,1,exact,OK,"Wilhelmstr. 15, Sinsheim, 74889",430.0,49.254356,8.879072,1,exact,point,"Wilhelmstraße 15, Sinsheim, BW, Deutschland",address,openstreetmap,
66,Hausärzte,Hauptstr. 66,77736,Zell am Harmersbach,Ortenaukreis,"Hauptstr. 66, Zell am Harmersbach, 77736",48.341957,8.022642,0.8,fallback,OK,"Hauptstr. 66, Zell am Harmersbach, 77736",141.0,48.348796,8.071627,0.8,fallback,centroid,"Hauptstraße, Zell am Harmersbach, BW, Deutschland",street,openstreetmap,
69,Hausärzte,Scheffelstr. 25,68526,Ladenburg,Rhein-Neckar-Kreis,"Scheffelstr. 25, Ladenburg, 68526",49.474269,8.604283,1,exact,OK,"Scheffelstr. 25, Ladenburg, 68526",430.0,49.474269,8.604283,1,exact,point,"Scheffelstraße 25, Ladenburg, BW, Deutschland",address,openstreetmap,
72,Hausärzte,Kraichtalstr. 6,75038,Oberderdingen,"Karlsruhe, Land","Kraichtalstr. 6, Oberderdingen, 75038",49.086918,8.772814,1,exact,OK,"Kraichtalstr. 6, Oberderdingen, 75038",375.0,49.086918,8.772814,1,exact,point,"Kraichtalstraße 6, Oberderdingen, BW, Deutschland",address,openstreetmap,
73,Hausärzte,Großbottwarer Str. 45,71720,Oberstenfeld,Ludwigsburg,"Großbottwarer Str. 45, Oberstenfeld, 71720",49.02321,9.319119,1,exact,OK,"Großbottwarer Str. 45, Oberstenfeld, 71720",432.0,49.02321,9.319119,1,exact,point,"Großbottwarer Straße 45, Oberstenfeld, BW, Deutschland",address,openstreetmap,
74,Hausärzte,Nürtinger Str. 17,72666,Neckartailfingen,Esslingen,"Nürtinger Str. 17, Neckartailfingen, 72666",48.612425,9.264419,1,exact,OK,"Nürtinger Str. 17, Neckartailfingen, 72666",432.0,48.612425,9.264419,1,exact,point,"Nürtinger Straße 17, Neckartailfingen, BW, Deutschland",address,openstreetmap,
76,Hausärzte,Bahnhofstr. 54,74348,Lauffen am Neckar,"Heilbronn, Land","Bahnhofstr. 54, Lauffen am Neckar, 74348",49.076289,9.146354,1,exact,OK,"Bahnhofstr. 54, Lauffen am Neckar, 74348",430.0,49.076289,9.146354,1,exact,point,"Bahnhofstraße 54, Lauffen am Neckar, BW, Deutschland",address,openstreetmap,
79,Hausärzte,Mörikeweg 8,74199,Untergruppenbach,"Heilbronn, Land","Mörikeweg 8, Untergruppenbach, 74199",49.090541,9.271817,1,exact,OK,"Mörikeweg 8, Untergruppenbach, 74199",432.0,49.090541,9.271817,1,exact,point,"Mörikeweg 8, Untergruppenbach, BW, Deutschland",address,openstreetmap,
80,Hausärzte,Großbottwarer Str. 5,71720,Oberstenfeld,Ludwigsburg,"Großbottwarer Str. 5, Oberstenfeld, 71720",49.024547,9.320146,1,exact,OK,"Großbottwarer Str. 5, Oberstenfeld, 71720",432.0,49.024547,9.320146,1,exact,point,"Großbottwarer Straße 5, Oberstenfeld, BW, Deutschland",address,openstreetmap,
94,Hausärzte,Hausener Str. 14,72505,Krauchenwies,Sigmaringen,"Hausener Str. 14, Krauchenwies, 72505",48.017372,9.250081,1,exact,OK,"Hausener Str. 14, Krauchenwies, 72505",377.0,48.017372,9.250081,1,exact,point,"Hausener Straße 14, Krauchenwies, BW, Deutschland",address,openstreetmap,
98,Hausärzte,Schulstr. 20,88348,Bad Saulgau,Sigmaringen,"Schulstr. 20, Bad Saulgau, 88348",48.016732,9.504352,1,exact,OK,"Schulstr. 20, Bad Saulgau, 88348",430.0,48.016732,9.504352,1,exact,point,"Schulstraße 20, Bad Saulgau, BW, Deutschland",address,openstreetmap,
100,Hausärzte,Schützenstr. 8 - 10,88348,Bad Saulgau,Sigmaringen,"Schützenstr. 8 - 10, Bad Saulgau, 88348",48.018942,9.503115,0.8,fallback,OK,"Schützenstr. 8 - 10, Bad Saulgau, 88348",141.0,48.018942,9.503115,0.8,fallback,centroid,"Schützenstraße, Bad Saulgau, BW, Deutschland",street,openstreetmap,
102,Hausärzte,Schützenstraße 8-10,88348,Bad Saulgau,Sigmaringen,"Schützenstraße 8-10, Bad Saulgau, 88348",48.018942,9.503115,0.8,fallback,OK,"Schützenstraße 8-10, Bad Saulgau, 88348",143.0,48.018942,9.503115,0.8,fallback,centroid,"Schützenstraße, Bad Saulgau, BW, Deutschland",street,openstreetmap,
103,Hausärzte,Hinter Alenberg 21,89150,Laichingen,Alb-Donau-Kreis,"Hinter Alenberg 21, Laichingen, 89150",48.491834,9.680584,1,exact,OK,"Hinter Alenberg 21, Laichingen, 89150",432.0,48.491834,9.680584,1,exact,point,"Hinter Alenberg 21, Laichingen, BW, Deutschland",address,openstreetmap,
106,Hausärzte,Werderstr. 3,88348,Bad Saulgau,Sigmaringen,"Werderstr. 3, Bad Saulgau, 88348",48.015757,9.500451,1,exact,OK,"Werderstr. 3, Bad Saulgau, 88348",430.0,48.015757,9.500451,1,exact,point,"Werderstraße 3, Bad Saulgau, BW, Deutschland",address,openstreetmap,
107,Hausärzte,Willy-Brandt-Allee 2,74523,Schwäbisch Hall,Schwäbisch Hall,"Willy-Brandt-Allee 2, Schwäbisch Hall, 74523",49.109085,9.763409,1,exact,OK,"Willy-Brandt-Allee 2, Schwäbisch Hall, 74523",432.0,49.109085,9.763409,1,exact,point,"Willy-Brandt-Allee 2, Schwäbisch Hall, BW, Deutschland",address,openstreetmap,
108,Hausärzte,Kaiserstr. 58,88348,Bad Saulgau,Sigmaringen,"Kaiserstr. 58, Bad Saulgau, 88348",48.016843,9.502473,1,exact,OK,"Kaiserstr. 58, Bad Saulgau, 88348",430.0,48.016843,9.502473,1,exact,point,"Kaiserstraße 58, Bad Saulgau, BW, Deutschland",address,openstreetmap,
109,Hausärzte,Radstr. 3,89150,Laichingen,Alb-Donau-Kreis,"Radstr. 3, Laichingen, 89150",48.490299,9.686636,1,exact,OK,"Radstr. 3, Laichingen, 89150",430.0,48.490299,9.686636,1,exact,point,"Radstraße 3, Laichingen, BW, Deutschland",address,openstreetmap,
110,Hausärzte,Feldstetterstr. 64,89150,Laichingen,Alb-Donau-Kreis,"Feldstetterstr. 64, Laichingen, 89150",48.488753,9.681551,1,exact,OK,"Feldstetterstr. 64, Laichingen, 89150",330.0,48.488753,9.681551,1,exact,point,"Feldstetter Straße 64, Laichingen, BW, Deutschland",address,openstreetmap,
117,Hausärzte,Bahnhofstr. 44,97922,Lauda-Königshofen,Main-Tauber-Kreis,"Bahnhofstr. 44, Lauda-Königshofen, 97922",49.565675,9.708225,1,exact,OK,"Bahnhofstr. 44, Lauda-Königshofen, 97922",430.0,49.565675,9.708225,1,exact,point,"Bahnhofstraße 44, Lauda-Königshofen, BW, Deutschland",address,openstreetmap,
119,Hausärzte,Josef-Schmitt-Str. 42,97922,Lauda-Königshofen,Main-Tauber-Kreis,"Josef-Schmitt-Str. 42, Lauda-Königshofen, 97922",49.565809,9.706196,1,exact,OK,"Josef-Schmitt-Str. 42, Lauda-Königshofen, 97922",432.0,49.565809,9.706196,1,exact,point,"Josef-Schmitt-Straße 42, Lauda-Königshofen, BW, Deutschland",address,openstreetmap,
120,Hausärzte,Wiesenstr. 11,75438,Knittlingen,Enzkreis,"Wiesenstr. 11, Knittlingen, 75438",49.023993,8.75118,1,exact,OK,"Wiesenstr. 11, Knittlingen, 75438",430.0,49.023993,8.75118,1,exact,point,"Wiesenstraße 11, Knittlingen, BW, Deutschland",address,openstreetmap,
121,Hausärzte,Schillerstr. 5 a,97922,Lauda-Königshofen,Main-Tauber-Kreis,"Schillerstr. 5 a, Lauda-Königshofen, 97922",49.566959,9.704511,1,exact,OK,"Schillerstr. 5 a, Lauda-Königshofen, 97922",430.0,49.566959,9.704511,1,exact,point,"Schillerstraße 5, Lauda-Königshofen, BW, Deutschland",address,openstreetmap,
125,Hausärzte,Gartenstr. 8,75228,Ispringen,Enzkreis,"Gartenstr. 8, Ispringen, 75228",48.915739,8.670974,1,exact,OK,"Gartenstr. 8, Ispringen, 75228",430.0,48.915739,8.670974,1,exact,point,"Gartenstraße 8, Ispringen, BW, Deutschland",address,openstreetmap,
126,Hausärzte,Tannenweg 12,72178,Waldachtal,Freudenstadt,"Tannenweg 12, Waldachtal, 72178",48.487077,8.603273,1,exact,OK,"Tannenweg 12, Waldachtal, 72178",432.0,48.487077,8.603273,1,exact,point,"Tannenweg 12, Waldachtal, BW, Deutschland",address,openstreetmap,
128,Hausärzte,Bahnhofstr. 20,71560,Sulzbach an der Murr,Rems-Murr-Kreis,"Bahnhofstr. 20, Sulzbach an der Murr, 71560",49.001211,9.50068,1,exact,OK,"Bahnhofstr. 20, Sulzbach an der Murr, 71560",430.0,49.001211,9.50068,1,exact,point,"Bahnhofstraße 20, Sulzbach an der Murr, BW, Deutschland",address,openstreetmap,
129,Hausärzte,Hauptstr. 11,72127,Kusterdingen,Tübingen,"Hauptstr. 11, Kusterdingen, 72127",48.49947,9.10184,1,exact,OK,"Hauptstr. 11, Kusterdingen, 72127",375.0,48.49947,9.10184,1,exact,point,"Hauptstraße 11, Kusterdingen, BW, Deutschland",address,openstreetmap,
130,Hausärzte,Schulstr. 1,75228,Ispringen,Enzkreis,"Schulstr. 1, Ispringen, 75228",48.915089,8.671638,1,exact,OK,"Schulstr. 1, Ispringen, 75228",430.0,48.915089,8.671638,1,exact,point,"Schulstraße 1, Ispringen, BW, Deutschland",address,openstreetmap,
132,Hausärzte,Schwerzerallee 57,73525,Schwäbisch Gmünd,Ostalbkreis,"Schwerzerallee 57, Schwäbisch Gmünd, 73525",48.792518,9.778937,1,exact,OK,"Schwerzerallee 57, Schwäbisch Gmünd, 73525",432.0,48.792518,9.778937,1,exact,point,"Schwerzerallee 57, Schwäbisch Gmünd, BW, Deutschland",address,openstreetmap,
134,Hausärzte,Graf-Casimir-Str. 1,74653,Ingelfingen,Hohenlohekreis,"Graf-Casimir-Str. 1, Ingelfingen, 74653",49.29732,9.652285,1,exact,OK,"Graf-Casimir-Str. 1, Ingelfingen, 74653",377.0,49.29732,9.652285,1,exact,point,"Graf-Casimir-Straße 1, Ingelfingen, BW, Deutschland",address,openstreetmap,
135,Hausärzte,Am Reinhardshof 10,97877,Wertheim,Main-Tauber-Kreis,"Am Reinhardshof 10, Wertheim, 97877",49.754153,9.505552,1,exact,OK,"Am Reinhardshof 10, Wertheim, 97877",432.0,49.754153,9.505552,1,exact,point,"Am Reinhardshof 10, Wertheim, BW, Deutschland",address,openstreetmap,
137,Hausärzte,Alte Landstr. 47,89155,Erbach,Alb-Donau-Kreis,"Alte Landstr. 47, Erbach, 89155",48.304467,9.906024,1,exact,OK,"Alte Landstr. 47, Erbach, 89155",430.0,48.304467,9.906024,1,exact,point,"Alte Landstraße 47, Erbach, BW, Deutschland",address,openstreetmap,
139,Hausärzte,Mühlstr. 2,74653,Ingelfingen,Hohenlohekreis,"Mühlstr. 2, Ingelfingen, 74653",49.300473,9.653388,1,exact,OK,"Mühlstr. 2, Ingelfingen, 74653",430.0,49.300473,9.653388,1,exact,point,"Mühlstraße 2, Ingelfingen, BW, Deutschland",address,openstreetmap,
141,Hausärzte,Im Dorf 3,72658,Bempflingen,Esslingen,"Im Dorf 3, Bempflingen, 72658",48.57261,9.266974,1,exact,OK,"Im Dorf 3, Bempflingen, 72658",432.0,48.57261,9.266974,1,exact,point,"Im Dorf 3, Bempflingen, BW, Deutschland",address,openstreetmap,
142,Hausärzte,Waldstr. 143,68305,Mannheim,Mannheim,"Waldstr. 143, Mannheim, 68305",49.524654,8.500541,1,exact,OK,"Waldstr. 143, Mannheim, 68305",430.0,49.524654,8.500541,1,exact,point,"Waldstraße 143, Mannheim, BW, Deutschland",address,openstreetmap,
144,Hausärzte,Wetzgauer Str. 52,73527,Schwäbisch Gmünd,Ostalbkreis,"Wetzgauer Str. 52, Schwäbisch Gmünd, 73527",48.815078,9.756521,1,exact,OK,"Wetzgauer Str. 52, Schwäbisch Gmünd, 73527",432.0,48.815078,9.756521,1,exact,point,"Wetzgauer Straße 52, Schwäbisch Gmünd, BW, Deutschland",address,openstreetmap,
145,Hausärzte,Eutighofer Str. 24,73525,Schwäbisch Gmünd,Ostalbkreis,"Eutighofer Str. 24, Schwäbisch Gmünd, 73525",48.789301,9.77621,1,exact,OK,"Eutighofer Str. 24, Schwäbisch Gmünd, 73525",432.0,48.789301,9.77621,1,exact,point,"Eutighofer Straße 24, Schwäbisch Gmünd, BW, Deutschland",address,openstreetmap,
148,Hausärzte,Kugelberg 7,88367,Hohentengen,Sigmaringen,"Kugelberg 7, Hohentengen, 88367",48.029984,9.379385,1,exact,OK,"Kugelberg 7, Hohentengen, 88367",432.0,48.029984,9.379385,1,exact,point,"Kugelberg 7, Hohentengen, BW, Deutschland",address,openstreetmap,
150,Hausärzte,Römerstr. 7,76189,Karlsruhe,"Karlsruhe, Stadt","Römerstr. 7, Karlsruhe, 76189",49.003828,8.337104,1,exact,OK,"Römerstr. 7, Karlsruhe, 76189",430.0,49.003828,8.337104,1,exact,point,"Römerstraße 7, Karlsruhe, BW, Deutschland",address,openstreetmap,
152,Hausärzte,Ulmer Str. 6,78054,Villingen-Schwenningen,Schwarzwald-Baar-Kreis,"Ulmer Str. 6, Villingen-Schwenningen, 78054",48.070904,8.525674,1,exact,OK,"Ulmer Str. 6, Villingen-Schwenningen, 78054",432.0,48.070904,8.525674,1,exact,point,"Ulmer Straße 6, Villingen-Schwenningen, BW, Deutschland",address,openstreetmap,
153,Hausärzte,Bürkstr. 87,78054,Villingen-Schwenningen,Schwarzwald-Baar-Kreis,"Bürkstr. 87, Villingen-Schwenningen, 78054",48.064002,8.525733,1,exact,OK,"Bürkstr. 87, Villingen-Schwenningen, 78054",430.0,48.064002,8.525733,1,exact,point,"Bürkstraße 87, Villingen-Schwenningen, BW, Deutschland",address,openstreetmap,
154,Hausärzte,Industriestr. 55,75417,Mühlacker,Enzkreis,"Industriestr. 55, Mühlacker, 75417",48.954564,8.872035,0.8,fallback,OK,"Industriestr. 55, Mühlacker, 75417",141.0,48.954564,8.872035,0.8,fallback,centroid,"Industriestraße, Mühlacker, BW, Deutschland",street,openstreetmap,
160,Hausärzte,Enges Gässle 2/1,71131,Jettingen,Böblingen,"Enges Gässle 2/1, Jettingen, 71131",48.576683,8.774971,0.8,fallback,OK,"Enges Gässle 2/1, Jettingen, 71131",143.0,48.576683,8.774971,0.8,fallback,centroid,"Enges Gässle, Jettingen, BW, Deutschland",street,openstreetmap,
161,Hausärzte,Besselstr. 8,76185,Karlsruhe,"Karlsruhe, Stadt","Besselstr. 8, Karlsruhe, 76185",49.003089,8.343643,1,exact,OK,"Besselstr. 8, Karlsruhe, 76185",430.0,49.003089,8.343643,1,exact,point,"Besselstraße 8, Karlsruhe, BW, Deutschland",address,openstreetmap,
162,Hausärzte,Bismarckstr. 9,78120,Furtwangen im Schwarzwald,Schwarzwald-Baar-Kreis,"Bismarckstr. 9, Furtwangen im Schwarzwald, 78120",48.052409,8.204346,1,exact,OK,"Bismarckstr. 9, Furtwangen im Schwarzwald, 78120",430.0,48.052409,8.204346,1,exact,point,"Bismarckstraße 9, Furtwangen im Schwarzwald, BW, Deutschland",address,openstreetmap,
163,Hausärzte,Hauptstr. 24,78112,St. Georgen im Schwarzwald,Schwarzwald-Baar-Kreis,"Hauptstr. 24, St. Georgen im Schwarzwald, 78112",48.124884,8.330281,1,exact,OK,"Hauptstr. 24, St. Georgen im Schwarzwald, 78112",430.0,48.124884,8.330281,1,exact,point,"Hauptstraße 24, St. Georgen im Schwarzwald, BW, Deutschland",address,openstreetmap,
164,Hausärzte,Gerwigstr. 31,78112,St. Georgen im Schwarzwald,Schwarzwald-Baar-Kreis,"Gerwigstr. 31, St. Georgen im Schwarzwald, 78112",48.124954,8.331991,1,exact,OK,"Gerwigstr. 31, St. Georgen im Schwarzwald, 78112",430.0,48.124954,8.331991,1,exact,point,"Gerwigstraße 31, St. Georgen im Schwarzwald, BW, Deutschland",address,openstreetmap,
169,Hausärzte,Kelterstr. 6/1,75239,Eisingen,Enzkreis,"Kelterstr. 6/1, Eisingen, 75239",48.948453,8.67038,0.8,fallback,OK,"Kelterstr. 6, Eisingen, 75239",375.0,48.948274,8.669135,1,exact,point,"Kelterstraße 6/1, Eisingen, BW, Deutschland",address,openstreetmap,
171,Hausärzte,Friedrichstr. 2,78120,Furtwangen im Schwarzwald,Schwarzwald-Baar-Kreis,"Friedrichstr. 2, Furtwangen im Schwarzwald, 78120",48.052451,8.2059,1,exact,OK,"Friedrichstr. 2, Furtwangen im Schwarzwald, 78120",430.0,48.052451,8.2059,1,exact,point,"Friedrichstraße 2, Furtwangen im Schwarzwald, BW, Deutschland",address,openstreetmap,
172,Hausärzte,Pforzheimer Str. 10,75239,Eisingen,Enzkreis,"Pforzheimer Str. 10, Eisingen, 75239",48.947202,8.668121,1,exact,OK,"Pforzheimer Str. 10, Eisingen, 75239",432.0,48.947202,8.668121,1,exact,point,"Pforzheimer Straße 10, Eisingen, BW, Deutschland",address,openstreetmap,
173,Hausärzte,Lindenstr. 3,78120,Furtwangen im Schwarzwald,Schwarzwald-Baar-Kreis,"Lindenstr. 3, Furtwangen im Schwarzwald, 78120",48.050781,8.206894,1,exact,OK,"Lindenstr. 3, Furtwangen im Schwarzwald, 78120",430.0,48.050781,8.206894,1,exact,point,"Lindenstraße 3, Furtwangen im Schwarzwald, BW, Deutschland",address,openstreetmap,
174,Hausärzte,Untere Hauptstraße 40,78573,Wurmlingen,Tuttlingen,"Untere Hauptstraße 40, Wurmlingen, 78573",48.001381,8.779817,1,exact,OK,"Untere Hauptstraße 40, Wurmlingen, 78573",432.0,48.001381,8.779817,1,exact,point,"Untere Hauptstraße 40, Wurmlingen, BW, Deutschland",address,openstreetmap,
175,Hausärzte,Lußhardtstr. 14,68804,Altlußheim,Rhein-Neckar-Kreis,"Lußhardtstr. 14, Altlußheim, 68804",49.29709,8.503427,1,exact,OK,"Lußhardtstr. 14, Altlußheim, 68804",430.0,49.29709,8.503427,1,exact,point,"Lußhardtstraße 14, Altlußheim, BW, Deutschland",address,openstreetmap,
177,Hausärzte,Heilbronner Str. 29,74889,Sinsheim,Rhein-Neckar-Kreis,"Heilbronner Str. 29, Sinsheim, 74889",49.252039,8.903887,1,exact,OK,"Heilbronner Str. 29, Sinsheim, 74889",432.0,49.252039,8.903887,1,exact,point,"Heilbronner Straße 29, Sinsheim, BW, Deutschland",address,openstreetmap,
179,Hausärzte,Obere Straße 15,78573,Wurmlingen,Tuttlingen,"Obere Straße 15, Wurmlingen, 78573",48.003943,8.778234,1,exact,OK,"Obere Straße 15, Wurmlingen, 78573",432.0,48.003943,8.778234,1,exact,point,"Obere Straße 15, Wurmlingen, BW, Deutschland",address,openstreetmap,
180,Hausärzte,Östliche Rheinbrückenstr. 28,76187,Karlsruhe,"Karlsruhe, Stadt","Östliche Rheinbrückenstr. 28, Karlsruhe, 76187",49.030667,8.341925,1,exact,OK,"Östliche Rheinbrückenstr. 28, Karlsruhe, 76187",430.0,49.030667,8.341925,1,exact,point,"Östliche Rheinbrückenstraße 28, Karlsruhe, BW, Deutschland",address,openstreetmap,
182,Hausärzte,Franz-Schubert-Str. 15,77704,Oberkirch,Ortenaukreis,"Franz-Schubert-Str. 15, Oberkirch, 77704",48.535076,8.079745,1,exact,OK,"Franz-Schubert-Str. 15, Oberkirch, 77704",432.0,48.535076,8.079745,1,exact,point,"Franz-Schubert-Straße 15, Oberkirch, BW, Deutschland",address,openstreetmap,
186,Hausärzte,Bahnhofstr. 4a,78073,Bad Dürrheim,Schwarzwald-Baar-Kreis,"Bahnhofstr. 4a, Bad Dürrheim, 78073",48.018998,8.530091,1,exact,OK,"Bahnhofstr. 4a, Bad Dürrheim, 78073",430.0,48.018998,8.530091,1,exact,point,"Bahnhofstraße 4a, Bad Dürrheim, BW, Deutschland",address,openstreetmap,
187,Hausärzte,Bahnhofstr. 4 a,78073,Bad Dürrheim,Schwarzwald-Baar-Kreis,"Bahnhofstr. 4 a, Bad Dürrheim, 78073",48.01903,8.53009,1,exact,OK,"Bahnhofstr. 4 a, Bad Dürrheim, 78073",430.0,48.01903,8.53009,1,exact,point,"Bahnhofstraße 4, Bad Dürrheim, BW, Deutschland",address,openstreetmap,
189,Hausärzte,Saarlandstr. 85,76187,Karlsruhe,"Karlsruhe, Stadt","Saarlandstr. 85, Karlsruhe, 76187",49.030256,8.340912,1,exact,OK,"Saarlandstr. 85, Karlsruhe, 76187",430.0,49.030256,8.340912,1,exact,point,"Saarlandstraße 85, Karlsruhe, BW, Deutschland",address,openstreetmap,
191,Hausärzte,Gebrüder-Grimm-Weg 6,68804,Altlußheim,Rhein-Neckar-Kreis,"Gebrüder-Grimm-Weg 6, Altlußheim, 68804",49.297443,8.505671,1,exact,OK,"Gebrüder-Grimm-Weg 6, Altlußheim, 68804",432.0,49.297443,8.505671,1,exact,point,"Gebrüder-Grimm-Weg 6, Altlußheim, BW, Deutschland",address,openstreetmap,
193,Hausärzte,Auf dem Rain 19,72108,Rottenburg am Neckar,Tübingen,"Auf dem Rain 19, Rottenburg am Neckar, 72108",48.476386,8.971773,1,exact,OK,"Auf dem Rain 19, Rottenburg am Neckar, 72108",432.0,48.476386,8.971773,1,exact,point,"Auf dem Rain 19, Rottenburg am Neckar, BW, Deutschland",address,openstreetmap,
194,Hausärzte,Rembrandtstr. 12,75173,Pforzheim,Pforzheim,"Rembrandtstr. 12, Pforzheim, 75173",48.88298,8.683401,1,exact,OK,"Rembrandtstr. 12, Pforzheim, 75173",375.0,48.88298,8.683401,1,exact,point,"Rembrandtstraße 12, Pforzheim, BW, Deutschland",address,openstreetmap,
195,Hausärzte,Gartenstr. 30,74933,Neidenstein,Rhein-Neckar-Kreis,"Gartenstr. 30, Neidenstein, 74933",49.319511,8.885247,1,exact,OK,"Gartenstr. 30, Neidenstein, 74933",430.0,49.319511,8.885247,1,exact,point,"Gartenstraße 30, Neidenstein, BW, Deutschland",address,openstreetmap,
198,Hausärzte,Heilbronner Str. 18,74199,Untergruppenbach,"Heilbronn, Land","Heilbronner Str. 18, Untergruppenbach, 74199",49.090483,9.275793,0.8,fallback,OK,"Heilbronner Str. 18, Untergruppenbach, 74199",143.0,49.090483,9.275793,0.8,fallback,centroid,"Heilbronner Straße, Untergruppenbach, BW, Deutschland",street,openstreetmap,
200,Hausärzte,Mörikestr. 10,74399,Walheim,Ludwigsburg,"Mörikestr. 10, Walheim, 74399",49.015775,9.152421,1,exact,OK,"Mörikestr. 10, Walheim, 74399",430.0,49.015775,9.152421,1,exact,point,"Mörikestraße 10, Walheim, BW, Deutschland",address,openstreetmap,
201,Hausärzte,Kreuzotterweg 15,70499,Stuttgart,Stuttgart,"Kreuzotterweg 15, Stuttgart, 70499",48.80122,9.085698,1,exact,OK,"Kreuzotterweg 15, Stuttgart, 70499",432.0,48.80122,9.085698,1,exact,point,"Kreuzotterweg 15, Stuttgart, BW, Deutschland",address,openstreetmap,
203,Hausärzte,Obere Bachstr. 25,72461,Albstadt,Zollernalbkreis,"Obere Bachstr. 25, Albstadt, 72461",48.256704,9.014192,1,exact,OK,"Obere Bachstr. 25, Albstadt, 72461",430.0,48.256704,9.014192,1,exact,point,"Obere Bachstraße 25, Albstadt, BW, Deutschland",address,openstreetmap,
204,Hausärzte,Lagerstr. 10 a,72510,Stetten am kalten Markt,Sigmaringen,"Lagerstr. 10 a, Stetten am kalten Markt, 72510",48.123379,9.078173,1,exact,OK,"Lagerstr. 10 a, Stetten am kalten Markt, 72510",430.0,48.123304,9.077975,1,exact,point,"Lagerstraße 10, Stetten am kalten Markt, BW, Deutschland",address,openstreetmap,
205,Hausärzte,Adlerstraße 14,72461,Albstadt,Zollernalbkreis,"Adlerstraße 14, Albstadt, 72461",48.255414,9.014005,1,exact,OK,"Adlerstraße 14, Albstadt, 72461",432.0,48.255414,9.014005,1,exact,point,"Adlerstraße 14, Albstadt, BW, Deutschland",address,openstreetmap,
209,Hausärzte,Heiligkreuzstr. 2,74348,Lauffen am Neckar,"Heilbronn, Land","Heiligkreuzstr. 2, Lauffen am Neckar, 74348",49.076178,9.14964,1,exact,OK,"Heiligkreuzstr. 2, Lauffen am Neckar, 74348",430.0,49.076178,9.14964,1,exact,point,"Heiligkreuzstraße 2, Lauffen am Neckar, BW, Deutschland",address,openstreetmap,
210,Hausärzte,Bahnhofstr. 26,74348,Lauffen am Neckar,"Heilbronn, Land","Bahnhofstr. 26, Lauffen am Neckar, 74348",49.07615,9.14926,1,exact,OK,"Bahnhofstr. 26, Lauffen am Neckar, 74348",430.0,49.07615,9.14926,1,exact,point,"Bahnhofstraße 26, Lauffen am Neckar, BW, Deutschland",address,openstreetmap,
213,Hausärzte,Brackenheimer Str. 20,74363,Güglingen,"Heilbronn, Land","Brackenheimer Str. 20, Güglingen, 74363",49.069993,9.030614,0.8,fallback,OK,"Brackenheimer Str. 20, Güglingen, 74363",143.0,49.069993,9.030614,0.8,fallback,centroid,"Brackenheimer Straße, Güglingen, BW, Deutschland",street,openstreetmap,
214,Hausärzte,Hauptstr. 41,71717,Beilstein,"Heilbronn, Land","Hauptstr. 41, Beilstein, 71717",49.039967,9.315188,1,exact,OK,"Hauptstr. 41, Beilstein, 71717",430.0,49.039967,9.315188,1,exact,point,"Hauptstraße 41, Beilstein, BW, Deutschland",address,openstreetmap,
215,Hausärzte,Im Köchersgrund 17,71717,Beilstein,"Heilbronn, Land","Im Köchersgrund 17, Beilstein, 71717",49.034713,9.314448,1,exact,OK,"Im Köchersgrund 17, Beilstein, 71717",432.0,49.034713,9.314448,1,exact,point,"Im Köchersgrund 17, Beilstein, BW, Deutschland",address,openstreetmap,
216,Hausärzte,Ringelnatzweg 3,72517,Sigmaringendorf,Sigmaringen,"Ringelnatzweg 3, Sigmaringendorf, 72517",48.0684,9.262994,1,exact,OK,"Ringelnatzweg 3, Sigmaringendorf, 72517",432.0,48.0684,9.262994,1,exact,point,"Ringelnatzweg 3, Sigmaringendorf, BW, Deutschland",address,openstreetmap,
219,Hausärzte,Marktstr. 11,72458,Albstadt,Zollernalbkreis,"Marktstr. 11, Albstadt, 72458",48.258694,9.011105,0.6,fallback,OK,"Marktstr. 11, Albstadt, 72458",-38.0,48.258694,9.011105,0.6,fallback,centroid,"Albstadt, BW, Deutschland",locality,whosonfirst,
220,Hausärzte,Marktstr. 44,72458,Albstadt,Zollernalbkreis,"Marktstr. 44, Albstadt, 72458",48.258694,9.011105,0.6,fallback,OK,"Marktstr. 44, Albstadt, 72458",-38.0,48.258694,9.011105,0.6,fallback,centroid,"Albstadt, BW, Deutschland",locality,whosonfirst,
221,Hausärzte,Schulstr. 9,74348,Lauffen am Neckar,"Heilbronn, Land","Schulstr. 9, Lauffen am Neckar, 74348",49.075162,9.150703,1,exact,OK,"Schulstr. 9, Lauffen am Neckar, 74348",430.0,49.075162,9.150703,1,exact,point,"Schulstraße 9, Lauffen am Neckar, BW, Deutschland",address,openstreetmap,
222,Hausärzte,Wilhelm-Schussen-Straße 44,88427,Bad Schussenried,Biberach,"Wilhelm-Schussen-Straße 44, Bad Schussenried, 88427",48.00717,9.655534,1,exact,OK,"Wilhelm-Schussen-Straße 44, Bad Schussenried, 88427",432.0,48.00717,9.655534,1,exact,point,"Wilhelm-Schussen-Straße 44, Bad Schussenried, BW, Deutschland",address,openstreetmap,
225,Hausärzte,Rastatter Str. 17-19,75179,Pforzheim,Pforzheim,"Rastatter Str. 17-19, Pforzheim, 75179",48.897649,8.665098,1,exact,OK,"Rastatter Str. 17-19, Pforzheim, 75179",432.0,48.897649,8.665098,1,exact,point,"Rastatter Straße 17-19, Pforzheim, BW, Deutschland",address,openstreetmap,
228,Hausärzte,Badstr. 30,73035,Göppingen,Göppingen,"Badstr. 30, Göppingen, 73035",48.667636,9.615552,1,exact,OK,"Badstr. 30, Göppingen, 73035",430.0,48.667636,9.615552,1,exact,point,"Badstraße 30, Göppingen, BW, Deutschland",address,openstreetmap,
229,Hausärzte,Breitwiesen 3,74544,Michelbach an der Bilz,Schwäbisch Hall,"Breitwiesen 3, Michelbach an der Bilz, 74544",49.067745,9.762033,1,exact,OK,"Breitwiesen 3, Michelbach an der Bilz, 74544",432.0,49.067745,9.762033,1,exact,point,"Breitwiesen 3, Michelbach an der Bilz, BW, Deutschland",address,openstreetmap,
230,Hausärzte,Jahnstr. 5,74336,Brackenheim,"Heilbronn, Land","Jahnstr. 5, Brackenheim, 74336",49.068614,9.088788,1,exact,OK,"Jahnstr. 5, Brackenheim, 74336",430.0,49.068614,9.088788,1,exact,point,"Jahnstraße 5, Brackenheim, BW, Deutschland",address,openstreetmap,
232,Hausärzte,Bahnhofstr. 9,72525,Münsingen,Reutlingen,"Bahnhofstr. 9, Münsingen, 72525",48.409245,9.491173,1,exact,OK,"Bahnhofstr. 9, Münsingen, 72525",430.0,48.409245,9.491173,1,exact,point,"Bahnhofstraße 9, Münsingen, BW, Deutschland",address,openstreetmap,
242,Hausärzte,Untere Schubertstr. 1,74376,Gemmrigheim,Ludwigsburg,"Untere Schubertstr. 1, Gemmrigheim, 74376",49.028612,9.154148,1,exact,OK,"Untere Schubertstr. 1, Gemmrigheim, 74376",430.0,49.028612,9.154148,1,exact,point,"Untere Schubertstraße 1, Gemmrigheim, BW, Deutschland",address,openstreetmap,
244,Hausärzte,Kitzenbühlstr 7,78570,Mühlheim an der Donau,Tuttlingen,"Kitzenbühlstr 7, Mühlheim an der Donau, 78570",48.031604,8.881711,1,exact,OK,"Kitzenbühlstr 7, Mühlheim an der Donau, 78570",432.0,48.031604,8.881711,1,exact,point,"Kitzenbühlstraße 7, Mühlheim an der Donau, BW, Deutschland",address,openstreetmap,
246,Hausärzte,Bismarckstr. 13,97877,Wertheim,Main-Tauber-Kreis,"Bismarckstr. 13, Wertheim, 97877",49.761563,9.510749,1,exact,OK,"Bismarckstr. 13, Wertheim, 97877",430.0,49.761563,9.510749,1,exact,point,"Bismarckstraße 13, Wertheim, BW, Deutschland",address,openstreetmap,
248,Hausärzte,Bahnhofstr. 23,97877,Wertheim,Main-Tauber-Kreis,"Bahnhofstr. 23, Wertheim, 97877",49.763788,9.511066,1,exact,OK,"Bahnhofstr. 23, Wertheim, 97877",430.0,49.763788,9.511066,1,exact,point,"Bahnhofstraße 23, Wertheim, BW, Deutschland",address,openstreetmap,
250,Hausärzte,Eschenhof 31,68305,Mannheim,Mannheim,"Eschenhof 31, Mannheim, 68305",49.537088,8.50506,1,exact,OK,"Eschenhof 31, Mannheim, 68305",432.0,49.537088,8.50506,1,exact,point,"Eschenhof 31, Mannheim, BW, Deutschland",address,openstreetmap,
254,Hausärzte,Hospitalstr. 8,97877,Wertheim,Main-Tauber-Kreis,"Hospitalstr. 8, Wertheim, 97877",49.75957,9.51283,1,exact,OK,"Hospitalstr. 8, Wertheim, 97877",430.0,49.75957,9.51283,1,exact,point,"Hospitalstraße 8, Wertheim, BW, Deutschland",address,openstreetmap,
255,Hausärzte,Gerbergasse 10,97877,Wertheim,Main-Tauber-Kreis,"Gerbergasse 10, Wertheim, 97877",49.760968,9.515206,1,exact,OK,"Gerbergasse 10, Wertheim, 97877",432.0,49.760968,9.515206,1,exact,point,"Gerbergasse 10, Wertheim, BW, Deutschland",address,openstreetmap,
256,Hausärzte,Alter Rain 2,72401,Haigerloch,Zollernalbkreis,"Alter Rain 2, Haigerloch, 72401",48.345505,8.775701,1,exact,OK,"Alter Rain 2, Haigerloch, 72401",432.0,48.345505,8.775701,1,exact,point,"Alter Rain 2, Haigerloch, BW, Deutschland",address,openstreetmap,
258,Hausärzte,St.-Leoner-Str. 14,68809,Neulußheim,Rhein-Neckar-Kreis,"St.-Leoner-Str. 14, Neulußheim, 68809",49.293034,8.524179,1,exact,OK,"St.-Leoner-Str. 14, Neulußheim, 68809",387.0,49.293034,8.524179,1,exact,point,"Sankt-Leoner-Straße 14, Neulußheim, BW, Deutschland",address,openstreetmap,
261,Hausärzte,Schulstr. 3,71159,Mötzingen,Böblingen,"Schulstr. 3, Mötzingen, 71159",48.533137,8.774147,1,exact,OK,"Schulstr. 3, Mötzingen, 71159",430.0,48.533137,8.774147,1,exact,point,"Schulstraße 3, Mötzingen, BW, Deutschland",address,openstreetmap,
262,Hausärzte,Am Wehrgraben 1,76297,Stutensee,"Karlsruhe, Land","Am Wehrgraben 1, Stutensee, 76297",49.090932,8.507337,1,exact,OK,"Am Wehrgraben 1, Stutensee, 76297",432.0,49.090932,8.507337,1,exact,point,"Am Wehrgraben 1, Stutensee, BW, Deutschland",address,openstreetmap,
264,Hausärzte,In der Neckarhelle 105,69118,Heidelberg,Heidelberg,"In der Neckarhelle 105, Heidelberg, 69118",49.417318,8.74565,1,exact,OK,"In der Neckarhelle 105, Heidelberg, 69118",432.0,49.417318,8.74565,1,exact,point,"In der Neckarhelle 105, Heidelberg, BW, Deutschland",address,openstreetmap,
265,Hausärzte,Hauptstr. 83,77704,Oberkirch,Ortenaukreis,"Hauptstr. 83, Oberkirch, 77704",48.532457,8.07633,1,exact,OK,"Hauptstr. 83, Oberkirch, 77704",430.0,48.532457,8.07633,1,exact,point,"Hauptstraße 83, Oberkirch, BW, Deutschland",address,openstreetmap,
269,Hausärzte,Bahnhofstr. 10,77704,Oberkirch,Ortenaukreis,"Bahnhofstr. 10, Oberkirch, 77704",48.529881,8.078346,1,exact,OK,"Bahnhofstr. 10, Oberkirch, 77704",430.0,48.529881,8.078346,1,exact,point,"Bahnhofstraße 10, Oberkirch, BW, Deutschland",address,openstreetmap,
271,Hausärzte,Renchener Str. 1,77704,Oberkirch,Ortenaukreis,"Renchener Str. 1, Oberkirch, 77704",48.532213,8.077927,1,exact,OK,"Renchener Str. 1, Oberkirch, 77704",432.0,48.532213,8.077927,1,exact,point,"Renchener Straße 1, Oberkirch, BW, Deutschland",address,openstreetmap,
273,Hausärzte,Hauptstr. 37,77704,Oberkirch,Ortenaukreis,"Hauptstr. 37, Oberkirch, 77704",48.530584,8.079519,1,exact,OK,"Hauptstr. 37, Oberkirch, 77704",430.0,48.530584,8.079519,1,exact,point,"Hauptstraße 37, Oberkirch, BW, Deutschland",address,openstreetmap,
276,Hausärzte,Am Marktplatz 8,77704,Oberkirch,Ortenaukreis,"Am Marktplatz 8, Oberkirch, 77704",48.529307,8.079463,1,exact,OK,"Am Marktplatz 8, Oberkirch, 77704",432.0,48.529307,8.079463,1,exact,point,"Am Marktplatz 8, Oberkirch, BW, Deutschland",address,openstreetmap,
280,Hausärzte,Am Brurain 12,76187,Karlsruhe,"Karlsruhe, Stadt","Am Brurain 12, Karlsruhe, 76187",49.036746,8.341014,1,exact,OK,"Am Brurain 12, Karlsruhe, 76187",432.0,49.036746,8.341014,1,exact,point,"Am Brurain 12, Karlsruhe, BW, Deutschland",address,openstreetmap,
281,Hausärzte,Lederstr. 35,75365,Calw,Calw,"Lederstr. 35, Calw, 75365",48.716129,8.737928,1,exact,OK,"Lederstr. 35, Calw, 75365",430.0,48.716129,8.737928,1,exact,point,"Lederstraße 35, Calw, BW, Deutschland",address,openstreetmap,
284,Hausärzte,Wilhelm-Raabe-Str. 1,75180,Pforzheim,Pforzheim,"Wilhelm-Raabe-Str. 1, Pforzheim, 75180",48.876949,8.676537,1,exact,OK,"Wilhelm-Raabe-Str. 1, Pforzheim, 75180",377.0,48.876949,8.676537,1,exact,point,"Wilhelm-Raabe-Straße 1, Pforzheim, BW, Deutschland",address,openstreetmap,
286,Hausärzte,Schwetzinger Str. 24,68723,Plankstadt,Rhein-Neckar-Kreis,"Schwetzinger Str. 24, Plankstadt, 68723",49.39274,8.595003,1,exact,OK,"Schwetzinger Str. 24, Plankstadt, 68723",432.0,49.39274,8.595003,1,exact,point,"Schwetzinger Straße 24, Plankstadt, BW, Deutschland",address,openstreetmap,
288,Hausärzte,Rottenburger Str. 3/1,72411,Bodelshausen,Tübingen,"Rottenburger Str. 3/1, Bodelshausen, 72411",48.396519,8.972177,1,exact,OK,"Rottenburger Str. 3/1, Bodelshausen, 72411",432.0,48.396949,8.972017,1,exact,point,"Rottenburger Straße 3/1, Bodelshausen, BW, Deutschland",address,openstreetmap,
289,Hausärzte,Schwetzinger Str. 21,68723,Plankstadt,Rhein-Neckar-Kreis,"Schwetzinger Str. 21, Plankstadt, 68723",49.392082,8.595545,1,exact,OK,"Schwetzinger Str. 21, Plankstadt, 68723",432.0,49.392082,8.595545,1,exact,point,"Schwetzinger Straße 21, Plankstadt, BW, Deutschland",address,openstreetmap,
291,Hausärzte,Hutschenweihergäßle 11,72411,Bodelshausen,Tübingen,"Hutschenweihergäßle 11, Bodelshausen, 72411",48.394692,8.972204,1,exact,OK,"Hutschenweihergäßle 11, Bodelshausen, 72411",432.0,48.394692,8.972204,1,exact,point,"Hutschenweihergäßle 11, Bodelshausen, BW, Deutschland",address,openstreetmap,
292,Hausärzte,Am Burghof 23,72411,Bodelshausen,Tübingen,"Am Burghof 23, Bodelshausen, 72411",48.395939,8.971737,1,exact,OK,"Am Burghof 23, Bodelshausen, 72411",432.0,48.395939,8.971737,1,exact,point,"Am Burghof 23, Bodelshausen, BW, Deutschland",address,openstreetmap,
294,Hausärzte,Bregstr. 36/1,78120,Furtwangen im Schwarzwald,Schwarzwald-Baar-Kreis,"Bregstr. 36/1, Furtwangen im Schwarzwald, 78120",48.049105,8.203059,1,exact,OK,"Bregstr. 36/1, Furtwangen im Schwarzwald, 78120",430.0,48.047523,8.198009,1,exact,point,"Bregstraße 36/1, Furtwangen im Schwarzwald, BW, Deutschland",address,openstreetmap,
298,Hausärzte,Rennwiese 1,77855,Achern,Ortenaukreis,"Rennwiese 1, Achern, 77855",48.624144,8.075148,1,exact,OK,"Rennwiese 1, Achern, 77855",432.0,48.624144,8.075148,1,exact,point,"Rennwiese 1, Achern, BW, Deutschland",address,openstreetmap,
299,Hausärzte,Spitalstr. 2,76356,Weingarten (Baden),"Karlsruhe, Land","Spitalstr. 2, Weingarten (Baden), 76356",48.58064,8.06645,0.6,fallback,OK,"Spitalstr. 2, Weingarten (Baden), 76356",-78.0,48.58064,8.06645,0.6,fallback,centroid,"Weingarten, Renchen, BW, Deutschland",neighbourhood,whosonfirst,
300,Hausärzte,Kanalstr. 39,76356,Weingarten (Baden),"Karlsruhe, Land","Kanalstr. 39, Weingarten (Baden), 76356",48.58064,8.06645,0.6,fallback,OK,"Kanalstr. 39, Weingarten (Baden), 76356",-78.0,48.58064,8.06645,0.6,fallback,centroid,"Weingarten, Renchen, BW, Deutschland",neighbourhood,whosonfirst,
301,Hausärzte,Bahnhofstr. 42,76356,Weingarten (Baden),"Karlsruhe, Land","Bahnhofstr. 42, Weingarten (Baden), 76356",48.58064,8.06645,0.6,fallback,OK,"Bahnhofstr. 42, Weingarten (Baden), 76356",-78.0,48.58064,8.06645,0.6,fallback,centroid,"Weingarten, Renchen, BW, Deutschland",neighbourhood,whosonfirst,
304,Hausärzte,Königsberger Str. 14,76356,Weingarten (Baden),"Karlsruhe, Land","Königsberger Str. 14, Weingarten (Baden), 76356",48.58064,8.06645,0.6,fallback,OK,"Königsberger Str. 14, Weingarten (Baden), 76356",-76.0,48.58064,8.06645,0.6,fallback,centroid,"Weingarten, Renchen, BW, Deutschland",neighbourhood,whosonfirst,
305,Hausärzte,Alleenstr. 4,78054,Villingen-Schwenningen,Schwarzwald-Baar-Kreis,"Alleenstr. 4, Villingen-Schwenningen, 78054",48.061593,8.530802,1,exact,OK,"Alleenstr. 4, Villingen-Schwenningen, 78054",430.0,48.061593,8.530802,1,exact,point,"Alleenstraße 4, Villingen-Schwenningen, BW, Deutschland",address,openstreetmap,
307,Hausärzte,Rathausstr. 4,68535,Edingen-Neckarhausen,Rhein-Neckar-Kreis,"Rathausstr. 4, Edingen-Neckarhausen, 68535",49.447189,8.612485,1,exact,OK,"Rathaußtr. 4, Edingen-Neckarhausen, 68535",432.0,49.447189,8.612485,1,exact,point,"Rathausstraße 4, Edingen-Neckarhausen, BW, Deutschland",address,openstreetmap,
313,Hausärzte,Amalienstr. 3,76646,Bruchsal,"Karlsruhe, Land","Amalienstr. 3, Bruchsal, 76646",49.124985,8.59221,1,exact,OK,"Amalienstr. 3, Bruchsal, 76646",430.0,49.124985,8.59221,1,exact,point,"Amalienstraße 3, Bruchsal, BW, Deutschland",address,openstreetmap,
314,Hausärzte,"Heidolfstr. 9, 11",76646,Bruchsal,"Karlsruhe, Land","Heidolfstr. 9, 11, Bruchsal, 76646",49.124652,8.590566,0.6,fallback,OK,"Heidolfstr. 9, 11, Bruchsal, 76646",-38.0,49.124652,8.590566,0.6,fallback,centroid,"Bruchsal, BW, Deutschland",locality,whosonfirst,
315,Hausärzte,Hermann-Hesse-Straße 34,75417,Mühlacker,Enzkreis,"Hermann-Hesse-Straße 34, Mühlacker, 75417",48.951073,8.860589,1,exact,OK,"Hermann-Hesse-Straße 34, Mühlacker, 75417",432.0,48.951073,8.860589,1,exact,point,"Hermann-Hesse-Straße 34, Mühlacker, BW, Deutschland",address,openstreetmap,
318,Hausärzte,Kirchstr. 22,72218,Wildberg,Calw,"Kirchstr. 22, Wildberg, 72218",48.618089,8.777393,1,exact,OK,"Kirchstr. 22, Wildberg, 72218",430.0,48.618089,8.777393,1,exact,point,"Kirchstraße 22, Wildberg, BW, Deutschland",address,openstreetmap,
320,Hausärzte,Luisenstr. 10,76646,Bruchsal,"Karlsruhe, Land","Luisenstr. 10, Bruchsal, 76646",49.124546,8.59279,1,exact,OK,"Luisenstr. 10, Bruchsal, 76646",430.0,49.124546,8.59279,1,exact,point,"Luisenstraße 10, Bruchsal, BW, Deutschland",address,openstreetmap,
321,Hausärzte,Bahnhofsanlage 7,68775,Ketsch,Rhein-Neckar-Kreis,"Bahnhofsanlage 7, Ketsch, 68775",49.368799,8.531104,1,exact,OK,"Bahnhofsanlage 7, Ketsch, 68775",432.0,49.368799,8.531104,1,exact,point,"Bahnhofsanlage 7, Ketsch, BW, Deutschland",address,openstreetmap,
323,Hausärzte,Rathausstr. 4,88637,Leibertingen,Sigmaringen,"Rathausstr. 4, Leibertingen, 88637",48.043089,9.014838,1,exact,OK,"Rathaußtr. 4, Leibertingen, 88637",432.0,48.043089,9.014838,1,exact,point,"Rathausstraße 4, Leibertingen, BW, Deutschland",address,openstreetmap,
324,Hausärzte,Austr. 30,74336,Brackenheim,"Heilbronn, Land","Austr. 30, Brackenheim, 74336",49.073524,9.069528,1,exact,OK,"Austr. 30, Brackenheim, 74336",430.0,49.073524,9.069528,1,exact,point,"Austraße 30, Brackenheim, BW, Deutschland",address,openstreetmap,
330,Hausärzte,In der Stelle 3,72810,Gomaringen,Tübingen,"In der Stelle 3, Gomaringen, 72810",48.453683,9.100061,1,exact,OK,"In der Stelle 3, Gomaringen, 72810",432.0,48.453683,9.100061,1,exact,point,"In der Stelle 3, Gomaringen, BW, Deutschland",address,openstreetmap,
331,Hausärzte,Eichendorffstr. 2,72810,Gomaringen,Tübingen,"Eichendorffstr. 2, Gomaringen, 72810",48.461257,9.094548,1,exact,OK,"Eichendorffstr. 2, Gomaringen, 72810",430.0,48.461257,9.094548,1,exact,point,"Eichendorffstraße 2, Gomaringen, BW, Deutschland",address,openstreetmap,
332,Hausärzte,Gustav-Schöller-Str. 39,72116,Mössingen,Tübingen,"Gustav-Schöller-Str. 39, Mössingen, 72116",48.413796,9.119576,1,exact,OK,"Gustav-Schöller-Str. 39, Mössingen, 72116",432.0,48.413796,9.119576,1,exact,point,"Gustav-Schöller-Straße 39, Mössingen, BW, Deutschland",address,openstreetmap,
333,Hausärzte,Burghaldenstr. 6,72501,Gammertingen,Sigmaringen,"Burghaldenstr. 6, Gammertingen, 72501",48.273379,9.209861,1,exact,OK,"Burghaldenstr. 6, Gammertingen, 72501",430.0,48.273379,9.209861,1,exact,point,"Burghaldenstraße 6, Gammertingen, BW, Deutschland",address,openstreetmap,
334,Hausärzte,Lindenstr. 66,72810,Gomaringen,Tübingen,"Lindenstr. 66, Gomaringen, 72810",48.45484,9.098463,1,exact,OK,"Lindenstr. 66, Gomaringen, 72810",430.0,48.45484,9.098463,1,exact,point,"Lindenstraße 66, Gomaringen, BW, Deutschland",address,openstreetmap,
335,Hausärzte,Wasenstr. 4,72461,Albstadt,Zollernalbkreis,"Wasenstr. 4, Albstadt, 72461",48.255289,9.01662,1,exact,OK,"Wasenstr. 4, Albstadt, 72461",430.0,48.255289,9.01662,1,exact,point,"Wasenstraße 4, Albstadt, BW, Deutschland",address,openstreetmap,
336,Hausärzte,Max-Eyth-Str. 10,70839,Gerlingen,Ludwigsburg,"Max-Eyth-Str. 10, Gerlingen, 70839",48.801679,9.071893,1,exact,OK,"Max-Eyth-Str. 10, Gerlingen, 70839",432.0,48.801679,9.071893,1,exact,point,"Max-Eyth-Straße 10, Gerlingen, BW, Deutschland",address,openstreetmap,
337,Hausärzte,Marktstr. 2,71254,Ditzingen,Ludwigsburg,"Marktstr. 2, Ditzingen, 71254",48.826,9.06937,0.6,fallback,OK,"Marktstr. 2, Ditzingen, 71254",-38.0,48.826,9.06937,0.6,fallback,centroid,"Ditzingen, BW, Deutschland",locality,whosonfirst,
341,Hausärzte,Dammweg 12,71101,Schönaich,Böblingen,"Dammweg 12, Schönaich, 71101",48.661257,9.060344,1,exact,OK,"Dammweg 12, Schönaich, 71101",432.0,48.661257,9.060344,1,exact,point,"Dammweg 12, Schönaich, BW, Deutschland",address,openstreetmap,
343,Hausärzte,Giebelstr. 13 B,70499,Stuttgart,Stuttgart,"Giebelstr. 13 B, Stuttgart, 70499",48.803812,9.091014,1,exact,OK,"Giebelstr. 13 B, Stuttgart, 70499",365.0,48.803812,9.091014,1,exact,point,"Giebelstraße 13 B, Stuttgart, BW, Deutschland",address,openstreetmap,
344,Hausärzte,Hauptstr. 5,78141,Schönwald im Schwarzwald,Schwarzwald-Baar-Kreis,"Hauptstr. 5, Schönwald im Schwarzwald, 78141",48.10141,8.201114,1,exact,OK,"Hauptstr. 5, Schönwald im Schwarzwald, 78141",430.0,48.10141,8.201114,1,exact,point,"Hauptstraße 5, Schönwald im Schwarzwald, BW, Deutschland",address,openstreetmap,
345,Hausärzte,Wilsinger Str. 41,72818,Trochtelfingen,Reutlingen,"Wilsinger Str. 41, Trochtelfingen, 72818",48.30509,9.280119,1,exact,OK,"Wilsinger Str. 41, Trochtelfingen, 72818",432.0,48.30509,9.280119,1,exact,point,"Wilsinger Straße 41, Trochtelfingen, BW, Deutschland",address,openstreetmap,
346,Hausärzte,Stadtgraben 16,74363,Güglingen,"Heilbronn, Land","Stadtgraben 16, Güglingen, 74363",49.067099,9.001409,1,exact,OK,"Stadtgraben 16, Güglingen, 74363",432.0,49.067099,9.001409,1,exact,point,"Stadtgraben 16, Güglingen, BW, Deutschland",address,openstreetmap,
347,Hausärzte,Valentinstr. 3,76189,Karlsruhe,"Karlsruhe, Stadt","Valentinstr. 3, Karlsruhe, 76189",49.004069,8.332128,1,exact,OK,"Valentinstr. 3, Karlsruhe, 76189",430.0,49.004069,8.332128,1,exact,point,"Valentinstraße 3, Karlsruhe, BW, Deutschland",address,openstreetmap,
350,Hausärzte,Mühlbachstr. 10,74842,Billigheim,Neckar-Odenwald-Kreis,"Mühlbachstr. 10, Billigheim, 74842",49.34806,9.257956,1,exact,OK,"Mühlbachstr. 10, Billigheim, 74842",430.0,49.34806,9.257956,1,exact,point,"Mühlbachstraße 10, Billigheim, BW, Deutschland",address,openstreetmap,
354,Hausärzte,Leonberger Str. 29/1,71254,Ditzingen,Ludwigsburg,"Leonberger Str. 29/1, Ditzingen, 71254",48.82494,9.0648,1,exact,OK,"Leonberger Str. 29/1, Ditzingen, 71254",432.0,48.82494,9.0648,1,exact,point,"Leonberger Straße 29/1, Ditzingen, BW, Deutschland",address,openstreetmap,
360,Hausärzte,Heuchelbergstr. 22,74366,Kirchheim am Neckar,Ludwigsburg,"Heuchelbergstr. 22, Kirchheim am Neckar, 74366",49.04104,9.136306,1,exact,OK,"Heuchelbergstr. 22, Kirchheim am Neckar, 74366",430.0,49.04104,9.136306,1,exact,point,"Heuchelbergstraße 22, Kirchheim am Neckar, BW, Deutschland",address,openstreetmap,
361,Hausärzte,Kronenstr. 3,70825,Korntal-Münchingen,Ludwigsburg,"Kronenstr. 3, Korntal-Münchingen, 70825",48.85371,9.092998,1,exact,OK,"Kronenstr. 3, Korntal-Münchingen, 70825",430.0,48.85371,9.092998,1,exact,point,"Kronenstraße 3, Korntal-Münchingen, BW, Deutschland",address,openstreetmap,
364,Hausärzte,Bildstr. 6,71254,Ditzingen,Ludwigsburg,"Bildstr. 6, Ditzingen, 71254",48.825074,9.068898,1,exact,OK,"Bildstr. 6, Ditzingen, 71254",430.0,48.825074,9.068898,1,exact,point,"Bildstraße 6, Ditzingen, BW, Deutschland",address,openstreetmap,
366,Hausärzte,Hauptstr. 51,72525,Münsingen,Reutlingen,"Hauptstr. 51, Münsingen, 72525",48.411686,9.497426,1,exact,OK,"Hauptstr. 51, Münsingen, 72525",430.0,48.411686,9.497426,1,exact,point,"Hauptstraße 51, Münsingen, BW, Deutschland",address,openstreetmap,
367,Hausärzte,Hauptstr. 25,74357,Bönnigheim,Ludwigsburg,"Hauptstr. 25, Bönnigheim, 74357",49.041162,9.093077,1,exact,OK,"Hauptstr. 25, Bönnigheim, 74357",430.0,49.041162,9.093077,1,exact,point,"Hauptstraße 25, Bönnigheim, BW, Deutschland",address,openstreetmap,
368,Hausärzte,Hirschbergstr. 22,78054,Villingen-Schwenningen,Schwarzwald-Baar-Kreis,"Hirschbergstr. 22, Villingen-Schwenningen, 78054",48.059221,8.52654,1,exact,OK,"Hirschbergstr. 22, Villingen-Schwenningen, 78054",430.0,48.059221,8.52654,1,exact,point,"Hirschbergstraße 22, Villingen-Schwenningen, BW, Deutschland",address,openstreetmap,
373,Hausärzte,Bühlstr. 1,73087,Bad Boll,Göppingen,"Bühlstr. 1, Bad Boll, 73087",48.641564,9.615622,1,exact,OK,"Bühlstr. 1, Bad Boll, 73087",430.0,48.641564,9.615622,1,exact,point,"Bühlstraße 1, Bad Boll, BW, Deutschland",address,openstreetmap,
374,Hausärzte,Frankstr. 107,75172,Pforzheim,Pforzheim,"Frankstr. 107, Pforzheim, 75172",48.891801,8.674704,1,exact,OK,"Frankstr. 107, Pforzheim, 75172",375.0,48.891801,8.674704,1,exact,point,"Frankstraße 107, Pforzheim, BW, Deutschland",address,openstreetmap,
375,Hausärzte,Martin-Niemöller-Straße 2 a,75179,Pforzheim,Pforzheim,"Martin-Niemöller-Straße 2 a, Pforzheim, 75179",48.892315,8.672608,1,exact,OK,"Martin-Niemöller-Straße 2 a, Pforzheim, 75179",432.0,48.892178,8.672396,1,exact,point,"Martin-Niemöller-Straße 2, Pforzheim, BW, Deutschland",address,openstreetmap,
376,Hausärzte,Erlengarten 3,73087,Bad Boll,Göppingen,"Erlengarten 3, Bad Boll, 73087",48.642178,9.612964,1,exact,OK,"Erlengarten 3, Bad Boll, 73087",432.0,48.642178,9.612964,1,exact,point,"Erlengarten 3, Bad Boll, BW, Deutschland",address,openstreetmap,
377,Hausärzte,Hintere Mühlstr. 2,73035,Göppingen,Göppingen,"Hintere Mühlstr. 2, Göppingen, 73035",48.708441,9.616152,1,exact,OK,"Hintere Mühlstr. 2, Göppingen, 73035",430.0,48.708441,9.616152,1,exact,point,"Hintere Mühlstraße 2, Göppingen, BW, Deutschland",address,openstreetmap,
381,Hausärzte,Hauptstraße 25,88524,Uttenweiler,Biberach,"Hauptstraße 25, Uttenweiler, 88524",48.147277,9.613466,1,exact,OK,"Hauptstraße 25, Uttenweiler, 88524",377.0,48.147277,9.613466,1,exact,point,"Hauptstraße 25, Uttenweiler, BW, Deutschland",address,openstreetmap,
382,Hausärzte,Erlengarten 1,73087,Bad Boll,Göppingen,"Erlengarten 1, Bad Boll, 73087",48.642345,9.61314,1,exact,OK,"Erlengarten 1, Bad Boll, 73087",432.0,48.642345,9.61314,1,exact,point,"Erlengarten 1, Bad Boll, BW, Deutschland",address,openstreetmap,
385,Hausärzte,Goethestr. 56,72461,Albstadt,Zollernalbkreis,"Goethestr. 56, Albstadt, 72461",48.250287,9.018354,1,exact,OK,"Goethestr. 56, Albstadt, 72461",430.0,48.250287,9.018354,1,exact,point,"Goethestraße 56, Albstadt, BW, Deutschland",address,openstreetmap,
387,Hausärzte,Einkornstr. 36,74523,Schwäbisch Hall,Schwäbisch Hall,"Einkornstr. 36, Schwäbisch Hall, 74523",49.102346,9.773492,1,exact,OK,"Einkornstr. 36, Schwäbisch Hall, 74523",430.0,49.102346,9.773492,1,exact,point,"Einkornstraße 36, Schwäbisch Hall, BW, Deutschland",address,openstreetmap,
389,Hausärzte,Siederstr. 25,78054,Villingen-Schwenningen,Schwarzwald-Baar-Kreis,"Siederstr. 25, Villingen-Schwenningen, 78054",48.054936,8.525858,1,exact,OK,"Siederstr. 25, Villingen-Schwenningen, 78054",430.0,48.054936,8.525858,1,exact,point,"Siederstraße 25, Villingen-Schwenningen, BW, Deutschland",address,openstreetmap,
390,Hausärzte,Schillerstr. 8,72587,Römerstein,Reutlingen,"Schillerstr. 8, Römerstein, 72587",48.482095,9.544048,1,exact,OK,"Schillerstr. 8, Römerstein, 72587",430.0,48.482095,9.544048,1,exact,point,"Schillerstraße 8, Römerstein, BW, Deutschland",address,openstreetmap,
391,Hausärzte,Neubauer Weg 5,70569,Stuttgart,Stuttgart,"Neubauer Weg 5, Stuttgart, 70569",48.750333,9.084477,1,exact,OK,"Neubauer Weg 5, Stuttgart, 70569",387.0,48.750333,9.084477,1,exact,point,"Neubauerweg 5, Stuttgart, BW, Deutschland",address,openstreetmap,
392,Hausärzte,Mittenfeldstr. 4,70499,Stuttgart,Stuttgart,"Mittenfeldstr. 4, Stuttgart, 70499",48.804978,9.086139,1,exact,OK,"Mittenfeldstr. 4, Stuttgart, 70499",430.0,48.804978,9.086139,1,exact,point,"Mittenfeldstraße 4, Stuttgart, BW, Deutschland",address,openstreetmap,
394,Hausärzte,Stiftstr. 10,73035,Göppingen,Göppingen,"Stiftstr. 10, Göppingen, 73035",48.707033,9.616466,1,exact,OK,"Stiftstr. 10, Göppingen, 73035",430.0,48.707033,9.616466,1,exact,point,"Stiftstraße 10, Göppingen, BW, Deutschland",address,openstreetmap,
396,Hausärzte,Hauptstr. 95,73087,Bad Boll,Göppingen,"Hauptstr. 95, Bad Boll, 73087",48.640014,9.616777,1,exact,OK,"Hauptstr. 95, Bad Boll, 73087",430.0,48.640014,9.616777,1,exact,point,"Hauptstraße 95, Bad Boll, BW, Deutschland",address,openstreetmap,
397,Hausärzte,Auf dem Hof 5,88512,Mengen,Sigmaringen,"Auf dem Hof 5, Mengen, 88512",48.048676,9.326392,0.8,fallback,OK,"Auf dem Hof 5, Mengen, 88512",143.0,48.048676,9.326392,0.8,fallback,centroid,"Auf dem Hof, Mengen, BW, Deutschland",street,openstreetmap,
398,Hausärzte,Hechinger Str. 4,72461,Albstadt,Zollernalbkreis,"Hechinger Str. 4, Albstadt, 72461",48.254816,9.017987,1,exact,OK,"Hechinger Str. 4, Albstadt, 72461",432.0,48.254816,9.017987,1,exact,point,"Hechinger Straße 4, Albstadt, BW, Deutschland",address,openstreetmap,
399,Hausärzte,Kirchstr. 6,89198,Westerstetten,Alb-Donau-Kreis,"Kirchstr. 6, Westerstetten, 89198",48.518887,9.954416,1,exact,OK,"Kirchstr. 6, Westerstetten, 89198",430.0,48.518887,9.954416,1,exact,point,"Kirchstraße 6, Westerstetten, BW, Deutschland",address,openstreetmap,
402,Hausärzte,Jöhlinger Str. 102,75045,Walzbachtal,"Karlsruhe, Land","Jöhlinger Str. 102, Walzbachtal, 75045",49.032464,8.574796,1,exact,OK,"Jöhlinger Str. 102, Walzbachtal, 75045",432.0,49.032464,8.574796,1,exact,point,"Jöhlinger Straße 102, Walzbachtal, BW, Deutschland",address,openstreetmap,
403,Hausärzte,Hintere Gasse 8,73529,Schwäbisch Gmünd,Ostalbkreis,"Hintere Gasse 8, Schwäbisch Gmünd, 73529",48.78834,9.888472,1,exact,OK,"Hintere Gasse 8, Schwäbisch Gmünd, 73529",432.0,48.78834,9.888472,1,exact,point,"Hintere Gasse 8, Schwäbisch Gmünd, BW, Deutschland",address,openstreetmap,
404,Hausärzte,Gehrweg 12,74199,Untergruppenbach,"Heilbronn, Land","Gehrweg 12, Untergruppenbach, 74199",49.084731,9.319116,1,exact,OK,"Gehrweg 12, Untergruppenbach, 74199",432.0,49.084731,9.319116,1,exact,point,"Gehrweg 12, Untergruppenbach, BW, Deutschland",address,openstreetmap,
406,Hausärzte,Am alten Güterbahnhof 24,76646,Bruchsal,"Karlsruhe, Land","Am alten Güterbahnhof 24, Bruchsal, 76646",49.122846,8.58623,1,exact,OK,"Am alten Güterbahnhof 24, Bruchsal, 76646",432.0,49.122846,8.58623,1,exact,point,"Am alten Güterbahnhof 24, Bruchsal, BW, Deutschland",address,openstreetmap,
407,Hausärzte,Grauwiesenweg 2,74523,Schwäbisch Hall,Schwäbisch Hall,"Grauwiesenweg 2, Schwäbisch Hall, 74523",49.10664,9.773506,1,exact,OK,"Grauwiesenweg 2, Schwäbisch Hall, 74523",432.0,49.10664,9.773506,1,exact,point,"Grauwiesenweg 2, Schwäbisch Hall, BW, Deutschland",address,openstreetmap,
408,Hausärzte,Biberacherstr. 102,88441,Mittelbiberach,Biberach,"Biberacherstr. 102, Mittelbiberach, 88441",48.088111,9.752183,1,exact,OK,"Biberacherstr. 102, Mittelbiberach, 88441",385.0,48.088111,9.752183,1,exact,point,"Biberacher Straße 102, Mittelbiberach, BW, Deutschland",address,openstreetmap,
409,Hausärzte,Biberacher Str. 102,88441,Mittelbiberach,Biberach,"Biberacher Str. 102, Mittelbiberach, 88441",48.088111,9.752183,1,exact,OK,"Biberacher Str. 102, Mittelbiberach, 88441",432.0,48.088111,9.752183,1,exact,point,"Biberacher Straße 102, Mittelbiberach, BW, Deutschland",address,openstreetmap,
411,Hausärzte,Ernst-Reuter-Platz 4,70499,Stuttgart,Stuttgart,"Ernst-Reuter-Platz 4, Stuttgart, 70499",48.803473,9.091814,1,exact,OK,"Ernst-Reuter-Platz 4, Stuttgart, 70499",432.0,48.803473,9.091814,1,exact,point,"Ernst-Reuter-Platz 4, Stuttgart, BW, Deutschland",address,openstreetmap,
412,Hausärzte,Siebenmorgenweg 73,74081,Heilbronn,"Heilbronn, Stadt","Siebenmorgenweg 73, Heilbronn, 74081",49.123705,9.150033,1,exact,OK,"Siebenmorgenweg 73, Heilbronn, 74081",432.0,49.123705,9.150033,1,exact,point,"Siebenmorgenweg 73, Heilbronn, BW, Deutschland",address,openstreetmap,
413,Hausärzte,Bahnhofsplatz 4,71576,Burgstetten,Rems-Murr-Kreis,"Bahnhofsplatz 4, Burgstetten, 71576",48.928437,9.370121,1,exact,OK,"Bahnhofsplatz 4, Burgstetten, 71576",432.0,48.928437,9.370121,1,exact,point,"Bahnhofsplatz 4, Burgstetten, BW, Deutschland",address,openstreetmap,
414,Hausärzte,Überkinger Str. 14,73312,Geislingen an der Steige,Göppingen,"Überkinger Str. 14, Geislingen an der Steige, 73312",48.623973,9.825656,1,exact,OK,"Überkinger Str. 14, Geislingen an der Steige, 73312",432.0,48.623973,9.825656,1,exact,point,"Überkinger Straße 14, Geislingen an der Steige, BW, Deutschland",address,openstreetmap,
415,Hausärzte,Marie-Curie-Str. 6,88400,Biberach an der Riß,Biberach,"Marie-Curie-Str. 6, Biberach an der Riß, 88400",48.111796,9.778629,1,exact,OK,"Marie-Curie-Str. 6, Biberach an der Riß, 88400",432.0,48.111796,9.778629,1,exact,point,"Marie-Curie-Straße 6, Biberach an der Riß, BW, Deutschland",address,openstreetmap,
418,Hausärzte,Hauptstr. 41,88480,Achstetten,Biberach,"Hauptstr. 41, Achstetten, 88480",48.260622,9.896977,0.8,fallback,OK,"Hauptstr. 41, Achstetten, 88480",141.0,48.260622,9.896977,0.8,fallback,centroid,"Hauptstraße, Achstetten, BW, Deutschland",street,openstreetmap,
419,Hausärzte,Hauptstr. 5,97953,Königheim,Main-Tauber-Kreis,"Hauptstr. 5, Königheim, 97953",49.618184,9.592438,1,exact,OK,"Hauptstr. 5, Königheim, 97953",430.0,49.618184,9.592438,1,exact,point,"Hauptstraße 5, Königheim, BW, Deutschland",address,openstreetmap,
421,Hausärzte,Bahnhofstr. 27,73312,Geislingen an der Steige,Göppingen,"Bahnhofstr. 27, Geislingen an der Steige, 73312",48.618369,9.841209,1,exact,OK,"Bahnhofstr. 27, Geislingen an der Steige, 73312",430.0,48.618369,9.841209,1,exact,point,"Bahnhofstraße 27, Geislingen an der Steige, BW, Deutschland",address,openstreetmap,
422,Hausärzte,Überkinger Str. 21,73312,Geislingen an der Steige,Göppingen,"Überkinger Str. 21, Geislingen an der Steige, 73312",48.623196,9.824969,1,exact,OK,"Überkinger Str. 21, Geislingen an der Steige, 73312",432.0,48.623196,9.824969,1,exact,point,"Überkinger Straße 21, Geislingen an der Steige, BW, Deutschland",address,openstreetmap,
424,Hausärzte,Holzgerlinger Str. 3,71101,Schönaich,Böblingen,"Holzgerlinger Str. 3, Schönaich, 71101",48.65627,9.058352,1,exact,OK,"Holzgerlinger Str. 3, Schönaich, 71101",432.0,48.65627,9.058352,1,exact,point,"Holzgerlinger Straße 3, Schönaich, BW, Deutschland",address,openstreetmap,
426,Hausärzte,Am Berg 11,72535,Heroldstatt,Alb-Donau-Kreis,"Am Berg 11, Heroldstatt, 72535",48.442368,9.660847,1,exact,OK,"Am Berg 11, Heroldstatt, 72535",432.0,48.442368,9.660847,1,exact,point,"Am Berg 11, Heroldstatt, BW, Deutschland",address,openstreetmap,
427,Hausärzte,Ensostr. 31/1,89079,Ulm,Ulm,"Ensostr. 31/1, Ulm, 89079",48.35288,9.900436,1,exact,OK,"Ensostr. 31/1, Ulm, 89079",430.0,48.352817,9.906005,1,exact,point,"Ensostraße 31/1, Ulm, BW, Deutschland",address,openstreetmap,
429,Hausärzte,Rittergasse 5,97877,Wertheim,Main-Tauber-Kreis,"Rittergasse 5, Wertheim, 97877",49.758221,9.516851,1,exact,OK,"Rittergasse 5, Wertheim, 97877",432.0,49.758221,9.516851,1,exact,point,"Rittergasse 5, Wertheim, BW, Deutschland",address,openstreetmap,
431,Hausärzte,Schloßstr. 22,74336,Brackenheim,"Heilbronn, Land","Schloßstr. 22, Brackenheim, 74336",49.077805,9.063907,1,exact,OK,"Schloßstr. 22, Brackenheim, 74336",385.0,49.077805,9.063907,1,exact,point,"Schlossstraße 22, Brackenheim, BW, Deutschland",address,openstreetmap,
432,Hausärzte,Schubartstr. 20,73312,Geislingen an der Steige,Göppingen,"Schubartstr. 20, Geislingen an der Steige, 73312",48.613754,9.841987,1,exact,OK,"Schubartstr. 20, Geislingen an der Steige, 73312",430.0,48.613754,9.841987,1,exact,point,"Schubartstraße 20, Geislingen an der Steige, BW, Deutschland",address,openstreetmap,
433,Hausärzte,Neckarstr. 11,69412,Eberbach,Rhein-Neckar-Kreis,"Neckarstr. 11, Eberbach, 69412",49.461339,8.987776,1,exact,OK,"Neckarstr. 11, Eberbach, 69412",430.0,49.461339,8.987776,1,exact,point,"Neckarstraße 11, Eberbach, BW, Deutschland",address,openstreetmap,
435,Hausärzte,Bahnhofstr. 5,77781,Biberach,Ortenaukreis,"Bahnhofstr. 5, Biberach, 77781",48.338904,8.028727,1,exact,OK,"Bahnhofstr. 5, Biberach, 77781",430.0,48.338904,8.028727,1,exact,point,"Bahnhofstraße 5, Biberach, BW, Deutschland",address,openstreetmap,
436,Hausärzte,Hauptstr. 129,74931,Lobbach,Rhein-Neckar-Kreis,"Hauptstr. 129, Lobbach, 74931",49.372954,8.897788,1,exact,OK,"Hauptstr. 129, Lobbach, 74931",430.0,49.372954,8.897788,1,exact,point,"Hauptstraße 129, Lobbach, BW, Deutschland",address,openstreetmap,
438,Hausärzte,Amselweg 4,68535,Edingen-Neckarhausen,Rhein-Neckar-Kreis,"Amselweg 4, Edingen-Neckarhausen, 68535",49.445824,8.603703,1,exact,OK,"Amselweg 4, Edingen-Neckarhausen, 68535",432.0,49.445824,8.603703,1,exact,point,"Amselweg 4, Edingen-Neckarhausen, BW, Deutschland",address,openstreetmap,
439,Hausärzte,Rietenstr. 52,78054,Villingen-Schwenningen,Schwarzwald-Baar-Kreis,"Rietenstr. 52, Villingen-Schwenningen, 78054",48.05492,8.520778,1,exact,OK,"Rietenstr. 52, Villingen-Schwenningen, 78054",430.0,48.05492,8.520778,1,exact,point,"Rietenstraße 52, Villingen-Schwenningen, BW, Deutschland",address,openstreetmap,
440,Hausärzte,Starzacher Str. 48,72108,Rottenburg am Neckar,Tübingen,"Starzacher Str. 48, Rottenburg am Neckar, 72108",48.449388,8.852805,1,exact,OK,"Starzacher Str. 48, Rottenburg am Neckar, 72108",432.0,48.449388,8.852805,1,exact,point,"Starzacher Straße 48, Rottenburg am Neckar, BW, Deutschland",address,openstreetmap,
441,Hausärzte,Goethestr. 6,75438,Knittlingen,Enzkreis,"Goethestr. 6, Knittlingen, 75438",49.019191,8.765348,1,exact,OK,"Goethestr. 6, Knittlingen, 75438",430.0,49.019191,8.765348,1,exact,point,"Goethestraße 6, Knittlingen, BW, Deutschland",address,openstreetmap,
442,Hausärzte,Alter Schulplatz 2,78570,Mühlheim an der Donau,Tuttlingen,"Alter Schulplatz 2, Mühlheim an der Donau, 78570",48.022868,8.888503,1,exact,OK,"Alter Schulplatz 2, Mühlheim an der Donau, 78570",432.0,48.022868,8.888503,1,exact,point,"Alter Schulplatz 2, Mühlheim an der Donau, BW, Deutschland",address,openstreetmap,
445,Hausärzte,Lemaitrestr. 31,68309,Mannheim,Mannheim,"Lemaitrestr. 31, Mannheim, 68309",49.516226,8.513082,1,exact,OK,"Lemaitrestr. 31, Mannheim, 68309",430.0,49.516226,8.513082,1,exact,point,"Lemaitrestraße 31, Mannheim, BW, Deutschland",address,openstreetmap,
447,Hausärzte,Brettener Str. 2,75438,Knittlingen,Enzkreis,"Brettener Str. 2, Knittlingen, 75438",49.024824,8.760625,1,exact,OK,"Brettener Str. 2, Knittlingen, 75438",432.0,49.024824,8.760625,1,exact,point,"Brettener Straße 2, Knittlingen, BW, Deutschland",address,openstreetmap,
450,Hausärzte,Silcherstr. 17,74937,Spechbach,Rhein-Neckar-Kreis,"Silcherstr. 17, Spechbach, 74937",49.344761,8.879469,1,exact,OK,"Silcherstr. 17, Spechbach, 74937",430.0,49.344761,8.879469,1,exact,point,"Silcherstraße 17, Spechbach, BW, Deutschland",address,openstreetmap,
451,Hausärzte,Albblickstr. 10,72414,Rangendingen,Zollernalbkreis,"Albblickstr. 10, Rangendingen, 72414",48.399293,8.854218,1,exact,OK,"Albblickstr. 10, Rangendingen, 72414",430.0,48.399293,8.854218,1,exact,point,"Albblickstraße 10, Rangendingen, BW, Deutschland",address,openstreetmap,
452,Hausärzte,Attentalstr. 1,75045,Walzbachtal,"Karlsruhe, Land","Attentalstr. 1, Walzbachtal, 75045",49.025157,8.573314,1,exact,OK,"Attentalstr. 1, Walzbachtal, 75045",430.0,49.025315,8.57351,1,exact,point,"Attentalstraße 1, Walzbachtal, BW, Deutschland",address,openstreetmap,
453,Hausärzte,Freudensteiner Str. 1,75438,Knittlingen,Enzkreis,"Freudensteiner Str. 1, Knittlingen, 75438",49.025048,8.760801,1,exact,OK,"Freudensteiner Str. 1, Knittlingen, 75438",432.0,49.024902,8.760953,1,exact,point,"Freudensteiner Straße 1, Knittlingen, BW, Deutschland",address,openstreetmap,
456,Hausärzte,Kennedystr. 1,75438,Knittlingen,Enzkreis,"Kennedystr. 1, Knittlingen, 75438",49.02349,8.761441,1,exact,OK,"Kennedystr. 1, Knittlingen, 75438",430.0,49.02349,8.761441,1,exact,point,"Kennedystraße 1, Knittlingen, BW, Deutschland",address,openstreetmap,
457,Hausärzte,Jupiterplatz 1,68526,Ladenburg,Rhein-Neckar-Kreis,"Jupiterplatz 1, Ladenburg, 68526",49.469409,8.61496,1,exact,OK,"Jupiterplatz 1, Ladenburg, 68526",432.0,49.469409,8.61496,1,exact,point,"Jupiterplatz 1, Ladenburg, BW, Deutschland",address,openstreetmap,
458,Hausärzte,Weinheimer Str. 4,68526,Ladenburg,Rhein-Neckar-Kreis,"Weinheimer Str. 4, Ladenburg, 68526",49.473219,8.614063,1,exact,OK,"Weinheimer Str. 4, Ladenburg, 68526",432.0,49.473219,8.614063,1,exact,point,"Weinheimer Straße 4, Ladenburg, BW, Deutschland",address,openstreetmap,
461,Hausärzte,Heidolfstr. 9,76646,Bruchsal,"Karlsruhe, Land","Heidolfstr. 9, Bruchsal, 76646",49.098729,8.646161,1,exact,OK,"Heidolfstr. 9, Bruchsal, 76646",365.0,49.098729,8.646161,1,exact,point,"Heidolfstraße 9-11, Bruchsal, BW, Deutschland",address,openstreetmap,
462,Hausärzte,Bahnhofstr. 14,77709,Wolfach,Ortenaukreis,"Bahnhofstr. 14, Wolfach, 77709",48.281179,8.215474,1,exact,OK,"Bahnhofstr. 14, Wolfach, 77709",430.0,48.281179,8.215474,1,exact,point,"Obere Bahnhofstraße 14, Wolfach, BW, Deutschland",address,openstreetmap,
463,Hausärzte,Heidenbühlstr. 1,88450,Berkheim,Biberach,"Heidenbühlstr. 1, Berkheim, 88450",48.042427,10.081629,1,exact,OK,"Heidenbühlstr. 1, Berkheim, 88450",375.0,48.042427,10.081629,1,exact,point,"Heidenbühlstraße 1, Berkheim, BW, Deutschland",address,openstreetmap,
464,Hausärzte,Wiener Str. 1,73430,Aalen,Ostalbkreis,"Wiener Str. 1, Aalen, 73430",48.840362,10.091928,1,exact,OK,"Wiener Str. 1, Aalen, 73430",432.0,48.840362,10.091928,1,exact,point,"Wiener Straße 1, Aalen, BW, Deutschland",address,openstreetmap,
467,Hausärzte,Weidenfelder Str. 1,73430,Aalen,Ostalbkreis,"Weidenfelder Str. 1, Aalen, 73430",48.840015,10.092113,1,exact,OK,"Weidenfelder Str. 1, Aalen, 73430",432.0,48.840015,10.092113,1,exact,point,"Weidenfelder Straße 1, Aalen, BW, Deutschland",address,openstreetmap,
468,Hausärzte,Nordhäuser Str. 31,73485,Unterschneidheim,Ostalbkreis,"Nordhäuser Str. 31, Unterschneidheim, 73485",48.942465,10.367726,1,exact,OK,"Nordhäuser Str. 31, Unterschneidheim, 73485",432.0,48.942465,10.367726,1,exact,point,"Nordhäuser Straße 31, Unterschneidheim, BW, Deutschland",address,openstreetmap,
469,Hausärzte,Aalener Str. 1,73457,Essingen,Ostalbkreis,"Aalener Str. 1, Essingen, 73457",48.810194,10.029908,1,exact,OK,"Aalener Str. 1, Essingen, 73457",432.0,48.810194,10.029908,1,exact,point,"Aalener Straße 1, Essingen, BW, Deutschland",address,openstreetmap,
470,Hausärzte,Schillerstr. 8,89568,Hermaringen,Heidenheim,"Schillerstr. 8, Hermaringen, 89568",48.594196,10.259576,1,exact,OK,"Schillerstr. 8, Hermaringen, 89568",430.0,48.594196,10.259576,1,exact,point,"Schillerstraße 8, Hermaringen, BW, Deutschland",address,openstreetmap,
472,Hausärzte,Ringstr. 60,73441,Bopfingen,Ostalbkreis,"Ringstr. 60, Bopfingen, 73441",48.906168,10.358509,1,exact,OK,"Ringstr. 60, Bopfingen, 73441",430.0,48.906168,10.358509,1,exact,point,"Ringstraße 60, Bopfingen, BW, Deutschland",address,openstreetmap,
475,Hausärzte,St.-Ida-Str. 9,89171,Illerkirchberg,Alb-Donau-Kreis,"St.-Ida-Str. 9, Illerkirchberg, 89171",48.320427,10.015941,1,exact,OK,"St.-Ida-Str. 9, Illerkirchberg, 89171",432.0,48.320427,10.015941,1,exact,point,"St.-Ida-Straße 9, Illerkirchberg, BW, Deutschland",address,openstreetmap,
478,Hausärzte,Weilerstr. 8,73434,Aalen,Ostalbkreis,"Weilerstr. 8, Aalen, 73434",48.831905,10.068597,1,exact,OK,"Weilerstr. 8, Aalen, 73434",430.0,48.831905,10.068597,1,exact,point,"Weilerstraße 8, Aalen, BW, Deutschland",address,openstreetmap,
481,Hausärzte,Gmünder Str. 13,73430,Aalen,Ostalbkreis,"Gmünder Str. 13, Aalen, 73430",48.836964,10.091693,0.8,fallback,OK,"Gmünder Str. 13, Aalen, 73430",143.0,48.836964,10.091693,0.8,fallback,centroid,"Gmünder Straße, Aalen, BW, Deutschland",street,openstreetmap,
484,Hausärzte,Friedhofstr. 1/1,73430,Aalen,Ostalbkreis,"Friedhofstr. 1/1, Aalen, 73430",48.838131,10.091457,1,exact,OK,"Friedhofstr. 1, Aalen, 73430",375.0,48.837296,10.091608,1,exact,point,"Friedhofstraße 1/1, Aalen, BW, Deutschland",address,openstreetmap,
486,Hausärzte,Tauchenweiler Str. 9,73457,Essingen,Ostalbkreis,"Tauchenweiler Str. 9, Essingen, 73457",48.805685,10.027688,1,exact,OK,"Tauchenweiler Str. 9, Essingen, 73457",387.0,48.805685,10.027688,1,exact,point,"Tauchenweilerstraße 9, Essingen, BW, Deutschland",address,openstreetmap,
488,Hausärzte,Itterstr. 9,69412,Eberbach,Rhein-Neckar-Kreis,"Itterstr. 9, Eberbach, 69412",49.466141,8.981471,1,exact,OK,"Itterstr. 9, Eberbach, 69412",430.0,49.466141,8.981471,1,exact,point,"Itterstraße 9, Eberbach, BW, Deutschland",address,openstreetmap,
489,Hausärzte,Franz-Sigel-Str. 83,76646,Bruchsal,"Karlsruhe, Land","Franz-Sigel-Str. 83, Bruchsal, 76646",49.11257,8.569314,1,exact,OK,"Franz-Sigel-Str. 83, Bruchsal, 76646",432.0,49.11257,8.569314,1,exact,point,"Franz-Sigel-Straße 83, Bruchsal, BW, Deutschland",address,openstreetmap,
493,Hausärzte,Deidesheimer Str. 11-13,68309,Mannheim,Mannheim,"Deidesheimer Str. 11-13, Mannheim, 68309",49.505836,8.510482,1,exact,OK,"Deidesheimer Str. 11-13, Mannheim, 68309",432.0,49.505836,8.510482,1,exact,point,"Deidesheimer Straße 11-13, Mannheim, BW, Deutschland",address,openstreetmap,
495,Hausärzte,Beckstr. 13,69412,Eberbach,Rhein-Neckar-Kreis,"Beckstr. 13, Eberbach, 69412",49.459681,8.983305,1,exact,OK,"Beckstr. 13, Eberbach, 69412",430.0,49.459681,8.983305,1,exact,point,"Beckstraße 13, Eberbach, BW, Deutschland",address,openstreetmap,
497,Hausärzte,Mannheimer Str. 72,68309,Mannheim,Mannheim,"Mannheimer Str. 72, Mannheim, 68309",49.507198,8.510298,1,exact,OK,"Mannheimer Str. 72, Mannheim, 68309",432.0,49.507198,8.510298,1,exact,point,"Mannheimer Straße 72, Mannheim, BW, Deutschland",address,openstreetmap,
499,Hausärzte,Bahnhofsplatz 4,69412,Eberbach,Rhein-Neckar-Kreis,"Bahnhofsplatz 4, Eberbach, 69412",49.465263,8.983177,1,exact,OK,"Bahnhofsplatz 4, Eberbach, 69412",432.0,49.465263,8.983177,1,exact,point,"Bahnhofsplatz 4, Eberbach, BW, Deutschland",address,openstreetmap,
500,Hausärzte,Happenweiler Str. 15 a,88090,Immenstaad am Bodensee,Bodenseekreis,"Happenweiler Str. 15 a, Immenstaad am Bodensee, 88090",47.668707,9.369717,1,exact,OK,"Happenweiler Str. 15 a, Immenstaad am Bodensee, 88090",387.0,47.668707,9.369717,1,exact,point,"Happenweilerstraße 15, Immenstaad am Bodensee, BW, Deutschland",address,openstreetmap,
501,Hausärzte,Bussemerstr. 9,69412,Eberbach,Rhein-Neckar-Kreis,"Bussemerstr. 9, Eberbach, 69412",49.464101,8.984057,1,exact,OK,"Bussemerstr. 9, Eberbach, 69412",430.0,49.464101,8.984057,1,exact,point,"Bussemerstraße 9, Eberbach, BW, Deutschland",address,openstreetmap,
502,Hausärzte,Friedrichstr. 1,69412,Eberbach,Rhein-Neckar-Kreis,"Friedrichstr. 1, Eberbach, 69412",49.462804,8.983891,1,exact,OK,"Friedrichstr. 1, Eberbach, 69412",430.0,49.462804,8.983891,1,exact,point,"Friedrichstraße 1, Eberbach, BW, Deutschland",address,openstreetmap,
504,Hausärzte,Auf dem Sand 76 B,68309,Mannheim,Mannheim,"Auf dem Sand 76 B, Mannheim, 68309",49.514195,8.509267,1,exact,OK,"Auf dem Sand 76 B, Mannheim, 68309",432.0,49.514195,8.509267,1,exact,point,"Auf dem Sand 76, Mannheim, BW, Deutschland",address,openstreetmap,
505,Hausärzte,Kirchstr. 3,70839,Gerlingen,Ludwigsburg,"Kirchstr. 3, Gerlingen, 70839",48.799079,9.06313,1,exact,OK,"Kirchstr. 3, Gerlingen, 70839",430.0,48.799079,9.06313,1,exact,point,"Kirchstraße 3, Gerlingen, BW, Deutschland",address,openstreetmap,
508,Hausärzte,Hauptstr. 54,70839,Gerlingen,Ludwigsburg,"Hauptstr. 54, Gerlingen, 70839",48.798049,9.06285,1,exact,OK,"Hauptstr. 54, Gerlingen, 70839",430.0,48.798049,9.06285,1,exact,point,"Hauptstraße 54, Gerlingen, BW, Deutschland",address,openstreetmap,
509,Hausärzte,Uhlandstr. 54,78224,Singen (Hohentwiel),Konstanz,"Uhlandstr. 54, Singen (Hohentwiel), 78224",47.768774,8.84031,1,exact,OK,"Uhlandstr. 54, Singen (Hohentwiel), 78224",430.0,47.768774,8.84031,1,exact,point,"Uhlandstraße 54, Singen (Hohentwiel), BW, Deutschland",address,openstreetmap,
514,Hausärzte,Mühlstr. 1,72585,Riederich,Reutlingen,"Mühlstr. 1, Riederich, 72585",48.559308,9.272221,1,exact,OK,"Mühlstr. 1, Riederich, 72585",375.0,48.560471,9.269932,1,exact,point,"Mühlstraße 1, Riederich, BW, Deutschland",address,openstreetmap,
516,Hausärzte,St.-Martin-Str. 3/1,88512,Mengen,Sigmaringen,"St.-Martin-Str. 3/1, Mengen, 88512",48.049887,9.329559,0.8,fallback,OK,"St.-Martin-Str. 3/1, Mengen, 88512",143.0,48.049887,9.329559,0.8,fallback,centroid,"St.-Martin-Straße, Mengen, BW, Deutschland",street,openstreetmap,
517,Hausärzte,Wehrdstr. 7,78224,Singen (Hohentwiel),Konstanz,"Wehrdstr. 7, Singen (Hohentwiel), 78224",47.756357,8.838965,1,exact,OK,"Wehrdstr. 7, Singen (Hohentwiel), 78224",430.0,47.756357,8.838965,1,exact,point,"Wehrdstraße 7, Singen (Hohentwiel), BW, Deutschland",address,openstreetmap,
518,Hausärzte,Hauptstr. 56,88512,Mengen,Sigmaringen,"Hauptstr. 56, Mengen, 88512",48.050299,9.33114,1,exact,OK,"Hauptstr. 56, Mengen, 88512",430.0,48.050299,9.33114,1,exact,point,"Hauptstraße 56, Mengen, BW, Deutschland",address,openstreetmap,
521,Hausärzte,Alte Str. 15,88512,Mengen,Sigmaringen,"Alte Str. 15, Mengen, 88512",48.05124,9.331099,1,exact,OK,"Alte Str. 15, Mengen, 88512",432.0,48.05124,9.331099,1,exact,point,"Alte Straße 15, Mengen, BW, Deutschland",address,openstreetmap,
522,Hausärzte,Kirchstr. 20,71546,Aspach,Rems-Murr-Kreis,"Kirchstr. 20, Aspach, 71546",48.991496,9.362279,1,exact,OK,"Kirchstr. 20, Aspach, 71546",430.0,48.991496,9.362279,1,exact,point,"Kirchstraße 20, Aspach, BW, Deutschland",address,openstreetmap,
523,Hausärzte,Im Hummerholz 6,71397,Leutenbach,Rems-Murr-Kreis,"Im Hummerholz 6, Leutenbach, 71397",48.898558,9.367697,1,exact,OK,"Im Hummerholz 6, Leutenbach, 71397",432.0,48.898558,9.367697,1,exact,point,"Im Hummerholz 6, Leutenbach, BW, Deutschland",address,openstreetmap,
524,Hausärzte,Thurgauer Str. 4,78224,Singen (Hohentwiel),Konstanz,"Thurgauer Str. 4, Singen (Hohentwiel), 78224",47.76103,8.841325,1,exact,OK,"Thurgauer Str. 4, Singen (Hohentwiel), 78224",432.0,47.76103,8.841325,1,exact,point,"Thurgauer Straße 4, Singen (Hohentwiel), BW, Deutschland",address,openstreetmap,
527,Hausärzte,Wagensteigstr. 11,79274,St. Märgen,Breisgau-Hochschwarzwald,"Wagensteigstr. 11, St. Märgen, 79274",48.007016,8.091428,1,exact,OK,"Wagensteigstr. 11, St. Märgen, 79274",430.0,48.007016,8.091428,1,exact,point,"Wagensteigstraße 11, St. Märgen, BW, Deutschland",address,openstreetmap,
528,Hausärzte,Marktplatz 9 a,89129,Langenau,Alb-Donau-Kreis,"Marktplatz 9 a, Langenau, 89129",48.49943,10.12048,1,exact,OK,"Marktplatz 9 a, Langenau, 89129",432.0,48.500057,10.119988,1,exact,point,"Marktplatz 9, Langenau, BW, Deutschland",address,openstreetmap,
529,Hausärzte,Kuftenstraße 17/1,89129,Langenau,Alb-Donau-Kreis,"Kuftenstraße 17/1, Langenau, 89129",48.497658,10.120805,1,exact,OK,"Kuftenstraße 17, Langenau, 89129",432.0,48.497526,10.121778,1,exact,point,"Kuftenstraße 17/1, Langenau, BW, Deutschland",address,openstreetmap,
530,Hausärzte,Sirgensteinstr. 2,88267,Vogt,Ravensburg,"Sirgensteinstr. 2, Vogt, 88267",47.776518,9.769293,1,exact,OK,"Sirgensteinstr. 2, Vogt, 88267",430.0,47.776518,9.769293,1,exact,point,"Sirgensteinstraße 2, Vogt, BW, Deutschland",address,openstreetmap,
532,Hausärzte,Theodor-Storm-Str. 16,72461,Albstadt,Zollernalbkreis,"Theodor-Storm-Str. 16, Albstadt, 72461",48.282873,9.00091,1,exact,OK,"Theodor-Storm-Str. 16, Albstadt, 72461",432.0,48.282873,9.00091,1,exact,point,"Theodor-Storm-Straße 16, Albstadt, BW, Deutschland",address,openstreetmap,
533,Hausärzte,Weilimdorfer Str. 33,70839,Gerlingen,Ludwigsburg,"Weilimdorfer Str. 33, Gerlingen, 70839",48.801178,9.067752,1,exact,OK,"Weilimdorfer Str. 33, Gerlingen, 70839",432.0,48.801178,9.067752,1,exact,point,"Weilimdorfer Straße 33, Gerlingen, BW, Deutschland",address,openstreetmap,
534,Hausärzte,Weilimdorfer Str. 20,70839,Gerlingen,Ludwigsburg,"Weilimdorfer Str. 20, Gerlingen, 70839",48.800523,9.06704,1,exact,OK,"Weilimdorfer Str. 20, Gerlingen, 70839",432.0,48.800523,9.06704,1,exact,point,"Weilimdorfer Straße 20, Gerlingen, BW, Deutschland",address,openstreetmap,
537,Hausärzte,Bahnhofstr. 9,73457,Essingen,Ostalbkreis,"Bahnhofstr. 9, Essingen, 73457",48.809474,10.027041,1,exact,OK,"Bahnhofstr. 9, Essingen, 73457",430.0,48.809474,10.027041,1,exact,point,"Bahnhofstraße 9, Essingen, BW, Deutschland",address,openstreetmap,
539,Hausärzte,Enge Str. 6,78224,Singen (Hohentwiel),Konstanz,"Enge Str. 6, Singen (Hohentwiel), 78224",47.758972,8.838392,1,exact,OK,"Enge Str. 6, Singen (Hohentwiel), 78224",432.0,47.758972,8.838392,1,exact,point,"Enge Straße 6, Singen (Hohentwiel), BW, Deutschland",address,openstreetmap,
542,Hausärzte,Steinlachstr. 19,72116,Mössingen,Tübingen,"Steinlachstr. 19, Mössingen, 72116",48.381599,9.106777,1,exact,OK,"Steinlachstr. 19, Mössingen, 72116",430.0,48.381599,9.106777,1,exact,point,"Steinlachstraße 19, Mössingen, BW, Deutschland",address,openstreetmap,
543,Hausärzte,Freiheitstr. 15-17,78224,Singen (Hohentwiel),Konstanz,"Freiheitstr. 15-17, Singen (Hohentwiel), 78224",47.763672,8.843255,0.8,fallback,OK,"Freiheitstr. 15-17, Singen (Hohentwiel), 78224",141.0,47.763672,8.843255,0.8,fallback,centroid,"Freiheitstraße, Singen (Hohentwiel), BW, Deutschland",street,openstreetmap,
544,Hausärzte,Hauptstr. 38,88512,Mengen,Sigmaringen,"Hauptstr. 38, Mengen, 88512",48.05085,9.332204,1,exact,OK,"Hauptstr. 38, Mengen, 88512",430.0,48.05085,9.332204,1,exact,point,"Hauptstraße 38, Mengen, BW, Deutschland",address,openstreetmap,
545,Hausärzte,Espachstr. 3,88453,Erolzheim,Biberach,"Espachstr. 3, Erolzheim, 88453",48.09581,10.075983,1,exact,OK,"Espachstr. 3, Erolzheim, 88453",430.0,48.09581,10.075983,1,exact,point,"Espachstraße 3, Erolzheim, BW, Deutschland",address,openstreetmap,
550,Hausärzte,Mittelöschstraße 5,88213,Ravensburg,Ravensburg,"Mittelöschstraße 5, Ravensburg, 88213",47.780842,9.5879,1,exact,OK,"Mittelöschstraße 5, Ravensburg, 88213",377.0,47.780842,9.5879,1,exact,point,"Mittelöschstraße 5, Ravensburg, BW, Deutschland",address,openstreetmap,
552,Hausärzte,Hadwigstr. 11,78224,Singen (Hohentwiel),Konstanz,"Hadwigstr. 11, Singen (Hohentwiel), 78224",47.760825,8.839737,1,exact,OK,"Hadwigstr. 11, Singen (Hohentwiel), 78224",430.0,47.760825,8.839737,1,exact,point,"Hadwigstraße 11, Singen (Hohentwiel), BW, Deutschland",address,openstreetmap,
554,Hausärzte,Ekkehardstr. 9,78224,Singen (Hohentwiel),Konstanz,"Ekkehardstr. 9, Singen (Hohentwiel), 78224",47.761865,8.837998,1,exact,OK,"Ekkehardstr. 9, Singen (Hohentwiel), 78224",430.0,47.761865,8.837998,1,exact,point,"Ekkehardstraße 9, Singen (Hohentwiel), BW, Deutschland",address,openstreetmap,
555,Hausärzte,Bruderhofstr. 4,78224,Singen (Hohentwiel),Konstanz,"Bruderhofstr. 4, Singen (Hohentwiel), 78224",47.774865,8.835693,1,exact,OK,"Bruderhofstr. 4, Singen (Hohentwiel), 78224",430.0,47.774865,8.835693,1,exact,point,"Bruderhofstraße 4, Singen (Hohentwiel), BW, Deutschland",address,openstreetmap,
556,Hausärzte,Kirchstr. 61,74226,Nordheim,"Heilbronn, Land","Kirchstr. 61, Nordheim, 74226",49.1081,9.131913,1,exact,OK,"Kirchstr. 61, Nordheim, 74226",430.0,49.1081,9.131913,1,exact,point,"Kirchstraße 61, Nordheim, BW, Deutschland",address,openstreetmap,
558,Hausärzte,Imenstr. 4,74226,Nordheim,"Heilbronn, Land","Imenstr. 4, Nordheim, 74226",49.106408,9.131258,1,exact,OK,"Imenstr. 4, Nordheim, 74226",430.0,49.106408,9.131258,1,exact,point,"Imenstraße 4, Nordheim, BW, Deutschland",address,openstreetmap,
559,Hausärzte,Prof.-Schumacher-Str. 2/8,74706,Osterburken,Neckar-Odenwald-Kreis,"Prof.-Schumacher-Str. 2/8, Osterburken, 74706",49.427615,9.421941,1,exact,OK,"Prof.-Schumacher-Str. 2/8, Osterburken, 74706",387.0,49.427615,9.421941,1,exact,point,"Professor-Schumacher-Straße 2/8, Osterburken, BW, Deutschland",address,openstreetmap,
562,Hausärzte,Fasanenplatz 1,70499,Stuttgart,Stuttgart,"Fasanenplatz 1, Stuttgart, 70499",48.81652,9.086368,1,exact,OK,"Fasanenplatz 1, Stuttgart, 70499",432.0,48.81652,9.086368,1,exact,point,"Fasanenplatz 1, Stuttgart, BW, Deutschland",address,openstreetmap,
563,Hausärzte,Klosterstr. 14,88430,Rot an der Rot,Biberach,"Klosterstr. 14, Rot an der Rot, 88430",48.013787,10.028567,1,exact,OK,"Klosterstr. 14, Rot an der Rot, 88430",375.0,48.013787,10.028567,1,exact,point,"Klosterstraße 14, Rot an der Rot, BW, Deutschland",address,openstreetmap,
564,Hausärzte,Leintalstr. 21,73434,Aalen,Ostalbkreis,"Leintalstr. 21, Aalen, 73434",48.870574,10.023531,1,exact,OK,"Leintalstr. 21, Aalen, 73434",430.0,48.870574,10.023531,1,exact,point,"Leintalstraße 21, Aalen, BW, Deutschland",address,openstreetmap,
565,Hausärzte,Mündelstr. 29,89171,Illerkirchberg,Alb-Donau-Kreis,"Mündelstr. 29, Illerkirchberg, 89171",48.320511,10.021322,0.8,fallback,OK,"Mündelstr. 29, Illerkirchberg, 89171",141.0,48.320511,10.021322,0.8,fallback,centroid,"Mündelstraße, Illerkirchberg, BW, Deutschland",street,openstreetmap,
566,Hausärzte,Untere Brunnengasse 9,74861,Neudenau,"Heilbronn, Land","Untere Brunnengasse 9, Neudenau, 74861",49.291631,9.269974,1,exact,OK,"Untere Brunnengasse 9, Neudenau, 74861",432.0,49.291631,9.269974,1,exact,point,"Untere Brunnengasse 9, Neudenau, BW, Deutschland",address,openstreetmap,
569,Hausärzte,Tüngentaler Str. 66,74523,Schwäbisch Hall,Schwäbisch Hall,"Tüngentaler Str. 66, Schwäbisch Hall, 74523",49.112878,9.752401,1,exact,OK,"Tüngentaler Str. 66, Schwäbisch Hall, 74523",432.0,49.112878,9.752401,1,exact,point,"Tüngentaler Straße 66, Schwäbisch Hall, BW, Deutschland",address,openstreetmap,
571,Hausärzte,Kellereistr. 12,74706,Osterburken,Neckar-Odenwald-Kreis,"Kellereistr. 12, Osterburken, 74706",49.429784,9.426363,1,exact,OK,"Kellereistr. 12, Osterburken, 74706",430.0,49.429784,9.426363,1,exact,point,"Kellereistraße 12, Osterburken, BW, Deutschland",address,openstreetmap,
572,Hausärzte,Markdorfer Str. 2,88697,Bermatingen,Bodenseekreis,"Markdorfer Str. 2, Bermatingen, 88697",47.730199,9.349846,1,exact,OK,"Markdorfer Str. 2, Bermatingen, 88697",432.0,47.730199,9.349846,1,exact,point,"Markdorfer Straße 2, Bermatingen, BW, Deutschland",address,openstreetmap,
574,Hausärzte,Wattgraben 5,88090,Immenstaad am Bodensee,Bodenseekreis,"Wattgraben 5, Immenstaad am Bodensee, 88090",47.664384,9.364157,1,exact,OK,"Wattgraben 5, Immenstaad am Bodensee, 88090",432.0,47.664384,9.364157,1,exact,point,"Wattgraben 5, Immenstaad am Bodensee, BW, Deutschland",address,openstreetmap,
575,Hausärzte,Karlsbad 30,97980,Bad Mergentheim,Main-Tauber-Kreis,"Karlsbad 30, Bad Mergentheim, 97980",49.493719,9.781789,1,exact,OK,"Karlsbad 30, Bad Mergentheim, 97980",432.0,49.493719,9.781789,1,exact,point,"Karlsbad 30, Bad Mergentheim, BW, Deutschland",address,openstreetmap,
578,Hausärzte,Hofherrnstr. 50,73434,Aalen,Ostalbkreis,"Hofherrnstr. 50, Aalen, 73434",48.835172,10.065628,1,exact,OK,"Hofherrnstr. 50, Aalen, 73434",430.0,48.835172,10.065628,1,exact,point,"Hofherrnstraße 50, Aalen, BW, Deutschland",address,openstreetmap,
580,Hausärzte,Schulstr. 27,77709,Oberwolfach,Ortenaukreis,"Schulstr. 27, Oberwolfach, 77709",48.317181,8.218543,1,exact,OK,"Schulstr. 27, Oberwolfach, 77709",430.0,48.317181,8.218543,1,exact,point,"Schulstraße 27, Oberwolfach, BW, Deutschland",address,openstreetmap,
583,Hausärzte,Obere Str. 17,88430,Rot an der Rot,Biberach,"Obere Str. 17, Rot an der Rot, 88430",48.012098,10.027543,1,exact,OK,"Obere Str. 17, Rot an der Rot, 88430",377.0,48.012098,10.027543,1,exact,point,"Obere Straße 17, Rot an der Rot, BW, Deutschland",address,openstreetmap,
584,Hausärzte,Weiherwehr 6,73499,Wört,Ostalbkreis,"Weiherwehr 6, Wört, 73499",49.031485,10.273112,1,exact,OK,"Weiherwehr 6, Wört, 73499",432.0,49.031485,10.273112,1,exact,point,"Weiherwehr 6, Wört, BW, Deutschland",address,openstreetmap,
585,Hausärzte,Hardtstr. 9,73575,Leinzell,Ostalbkreis,"Hardtstr. 9, Leinzell, 73575",48.849851,9.875047,1,exact,OK,"Hardtstr. 9, Leinzell, 73575",430.0,48.849851,9.875047,1,exact,point,"Hardtstraße 9, Leinzell, BW, Deutschland",address,openstreetmap,
586,Hausärzte,Beizkoferstr. 19,88512,Mengen,Sigmaringen,"Beizkoferstr. 19, Mengen, 88512",48.051896,9.335905,1,exact,OK,"Beizkoferstr. 19, Mengen, 88512",385.0,48.051896,9.335905,1,exact,point,"Beizkofer Straße 19, Mengen, BW, Deutschland",address,openstreetmap,
587,Hausärzte,Eichendorffstr. 53,71560,Sulzbach an der Murr,Rems-Murr-Kreis,"Eichendorffstr. 53, Sulzbach an der Murr, 71560",49.006827,9.510361,1,exact,OK,"Eichendorffstr. 53, Sulzbach an der Murr, 71560",430.0,49.006827,9.510361,1,exact,point,"Eichendorffstraße 53, Sulzbach an der Murr, BW, Deutschland",address,openstreetmap,
588,Hausärzte,Jarekstr. 13,88400,Biberach an der Riß,Biberach,"Jarekstr. 13, Biberach an der Riß, 88400",48.099805,9.768395,1,exact,OK,"Jarekstr. 13, Biberach an der Riß, 88400",430.0,48.099805,9.768395,1,exact,point,"Jarekstraße 13, Biberach an der Riß, BW, Deutschland",address,openstreetmap,
590,Hausärzte,Komberger Weg 19,74523,Schwäbisch Hall,Schwäbisch Hall,"Komberger Weg 19, Schwäbisch Hall, 74523",49.115157,9.750443,1,exact,OK,"Komberger Weg 19, Schwäbisch Hall, 74523",432.0,49.115157,9.750443,1,exact,point,"Komberger Weg 19, Schwäbisch Hall, BW, Deutschland",address,openstreetmap,
591,Hausärzte,Akazienweg 5,73571,Göggingen,Ostalbkreis,"Akazienweg 5, Göggingen, 73571",48.858234,9.87746,1,exact,OK,"Akazienweg 5, Göggingen, 73571",432.0,48.858234,9.87746,1,exact,point,"Akazienweg 5, Göggingen, BW, Deutschland",address,openstreetmap,
593,Hausärzte,Ostalbstr. 65,73441,Bopfingen,Ostalbkreis,"Ostalbstr. 65, Bopfingen, 73441",48.843463,10.399945,1,exact,OK,"Ostalbstr. 65, Bopfingen, 73441",430.0,48.843463,10.399945,1,exact,point,"Ostalbstraße 65, Bopfingen, BW, Deutschland",address,openstreetmap,
594,Hausärzte,Marktstraße 2,89601,Schelklingen,Alb-Donau-Kreis,"Marktstraße 2, Schelklingen, 89601",48.375808,9.731944,1,exact,OK,"Marktstraße 2, Schelklingen, 89601",377.0,48.375808,9.731944,1,exact,point,"Marktstraße 2, Schelklingen, BW, Deutschland",address,openstreetmap,
595,Hausärzte,Friedrichsfelder Str. 49,68535,Edingen-Neckarhausen,Rhein-Neckar-Kreis,"Friedrichsfelder Str. 49, Edingen-Neckarhausen, 68535",49.447093,8.606277,1,exact,OK,"Friedrichsfelder Str. 49, Edingen-Neckarhausen, 68535",432.0,49.447093,8.606277,1,exact,point,"Friedrichsfelder Straße 49, Edingen-Neckarhausen, BW, Deutschland",address,openstreetmap,
596,Hausärzte,Lessingstr. 14,73485,Unterschneidheim,Ostalbkreis,"Lessingstr. 14, Unterschneidheim, 73485",48.942328,10.366758,1,exact,OK,"Lessingstr. 14, Unterschneidheim, 73485",430.0,48.942328,10.366758,1,exact,point,"Lessingstraße 14, Unterschneidheim, BW, Deutschland",address,openstreetmap,
598,Hausärzte,Hauptstr. 30,69198,Schriesheim,Rhein-Neckar-Kreis,"Hauptstr. 30, Schriesheim, 69198",49.486792,8.736944,1,exact,OK,"Hauptstr. 30, Schriesheim, 69198",430.0,49.486792,8.736944,1,exact,point,"Hauptstraße 30, Schriesheim, BW, Deutschland",address,openstreetmap,
599,Hausärzte,Im Laichle 23,73527,Schwäbisch Gmünd,Ostalbkreis,"Im Laichle 23, Schwäbisch Gmünd, 73527",48.8183,9.777308,1,exact,OK,"Im Laichle 23, Schwäbisch Gmünd, 73527",432.0,48.8183,9.777308,1,exact,point,"Im Laichle 23, Schwäbisch Gmünd, BW, Deutschland",address,openstreetmap,
600,Hausärzte,Alfred-Delp-Str. 2,73430,Aalen,Ostalbkreis,"Alfred-Delp-Str. 2, Aalen, 73430",48.837662,10.087563,1,exact,OK,"Alfred-Delp-Str. 2, Aalen, 73430",432.0,48.837662,10.087563,1,exact,point,"Alfred-Delp-Straße 2, Aalen, BW, Deutschland",address,openstreetmap,
601,Hausärzte,Marktplatz 31,88416,Ochsenhausen,Biberach,"Marktplatz 31, Ochsenhausen, 88416",48.071002,9.95101,1,exact,OK,"Marktplatz 31, Ochsenhausen, 88416",377.0,48.071002,9.95101,1,exact,point,"Marktplatz 31, Ochsenhausen, BW, Deutschland",address,openstreetmap,
606,Hausärzte,Erlenbachstr. 34,89155,Erbach,Alb-Donau-Kreis,"Erlenbachstr. 34, Erbach, 89155",48.328492,9.890309,1,exact,OK,"Erlenbachstr. 34, Erbach, 89155",430.0,48.328492,9.890309,1,exact,point,"Erlenbachstraße 34, Erbach, BW, Deutschland",address,openstreetmap,
609,Hausärzte,Bahnhofstr. 24,88416,Ochsenhausen,Biberach,"Bahnhofstr. 24, Ochsenhausen, 88416",48.070895,9.949815,1,exact,OK,"Bahnhofstr. 24, Ochsenhausen, 88416",375.0,48.070895,9.949815,1,exact,point,"Bahnhofstraße 24, Ochsenhausen, BW, Deutschland",address,openstreetmap,
612,Hausärzte,Mannheimer Str. 44,68309,Mannheim,Mannheim,"Mannheimer Str. 44, Mannheim, 68309",49.509338,8.513827,1,exact,OK,"Mannheimer Str. 44, Mannheim, 68309",377.0,49.509153,8.513995,1,exact,point,"Mannheimer Straße 44, Mannheim, BW, Deutschland",address,openstreetmap,
616,Hausärzte,Hauptstr. 28,88090,Immenstaad am Bodensee,Bodenseekreis,"Hauptstr. 28, Immenstaad am Bodensee, 88090",47.665476,9.366796,1,exact,OK,"Hauptstr. 28, Immenstaad am Bodensee, 88090",430.0,47.665476,9.366796,1,exact,point,"Hauptstraße 28, Immenstaad am Bodensee, BW, Deutschland",address,openstreetmap,
619,Hausärzte,Alte Waibstadter Str. 2 b,74889,Sinsheim,Rhein-Neckar-Kreis,"Alte Waibstadter Str. 2 b, Sinsheim, 74889",49.252407,8.890155,1,exact,OK,"Alte Waibstadter Str. 2 b, Sinsheim, 74889",432.0,49.252407,8.890155,1,exact,point,"Alte Waibstadter Straße 2, Sinsheim, BW, Deutschland",address,openstreetmap,
620,Hausärzte,Erlenbachstr. 45,89155,Erbach,Alb-Donau-Kreis,"Erlenbachstr. 45, Erbach, 89155",48.328221,9.888922,1,exact,OK,"Erlenbachstr. 45, Erbach, 89155",430.0,48.328221,9.888922,1,exact,point,"Erlenbachstraße 45, Erbach, BW, Deutschland",address,openstreetmap,
625,Hausärzte,Ehinger Str. 31-33,89155,Erbach,Alb-Donau-Kreis,"Ehinger Str. 31-33, Erbach, 89155",48.321685,9.889699,0.8,fallback,OK,"Ehinger Str. 31-33, Erbach, 89155",143.0,48.321685,9.889699,0.8,fallback,centroid,"Ehinger Straße, Erbach, BW, Deutschland",street,openstreetmap,
629,Hausärzte,Pfarrberg 3,73117,Wangen,Göppingen,"Pfarrberg 3, Wangen, 73117",48.729684,9.610999,1,exact,OK,"Pfarrberg 3, Wangen, 73117",432.0,48.729684,9.610999,1,exact,point,"Pfarrberg 3, Wangen, BW, Deutschland",address,openstreetmap,
630,Hausärzte,Ahornweg 9,88453,Erolzheim,Biberach,"Ahornweg 9, Erolzheim, 88453",48.094908,10.077874,1,exact,OK,"Ahornweg 9, Erolzheim, 88453",432.0,48.094908,10.077874,1,exact,point,"Ahornweg 9, Erolzheim, BW, Deutschland",address,openstreetmap,
631,Hausärzte,Länderöschstraße 30,88046,Friedrichshafen,Bodenseekreis,"Länderöschstraße 30, Friedrichshafen, 88046",47.657446,9.501244,1,exact,OK,"Länderöschstraße 30, Friedrichshafen, 88046",432.0,47.657446,9.501244,1,exact,point,"Länderöschstraße 30, Friedrichshafen, BW, Deutschland",address,openstreetmap,
632,Hausärzte,Kneippweg 1,88239,Wangen im Allgäu,Ravensburg,"Kneippweg 1, Wangen im Allgäu, 88239",47.68838,9.83025,1,exact,OK,"Kneippweg 1, Wangen im Allgäu, 88239",432.0,47.68838,9.83025,1,exact,point,"Kneippweg 1, Wangen im Allgäu, BW, Deutschland",address,openstreetmap,
633,Hausärzte,Zum Eichberg 2/1,88630,Pfullendorf,Sigmaringen,"Zum Eichberg 2/1, Pfullendorf, 88630",47.923489,9.264618,1,exact,OK,"Zum Eichberg 2/1, Pfullendorf, 88630",432.0,47.925415,9.260717,1,exact,point,"Zum Eichberg 2/1, Pfullendorf, BW, Deutschland",address,openstreetmap,
634,Hausärzte,Wurzacher Straße 47,88339,Bad Waldsee,Ravensburg,"Wurzacher Straße 47, Bad Waldsee, 88339",47.919781,9.758835,1,exact,OK,"Wurzacher Straße 47, Bad Waldsee, 88339",432.0,47.919781,9.758835,1,exact,point,"Wurzacher Straße 47, Bad Waldsee, BW, Deutschland",address,openstreetmap,
636,Hausärzte,Elisabeth-Achler-Str. 3,88339,Bad Waldsee,Ravensburg,"Elisabeth-Achler-Str. 3, Bad Waldsee, 88339",47.900424,9.699853,1,exact,OK,"Elisabeth-Achler-Str. 3, Bad Waldsee, 88339",432.0,47.900424,9.699853,1,exact,point,"Elisabeth-Achler-Straße 3, Bad Waldsee, BW, Deutschland",address,openstreetmap,
637,Hausärzte,Hindenburgstr. 12,88214,Ravensburg,Ravensburg,"Hindenburgstr. 12, Ravensburg, 88214",47.773376,9.608142,1,exact,OK,"Hindenburgstr. 12, Ravensburg, 88214",375.0,47.773376,9.608142,1,exact,point,"Hindenburgstraße 12, Ravensburg, BW, Deutschland",address,openstreetmap,
640,Hausärzte,Gutastr. 5,88046,Friedrichshafen,Bodenseekreis,"Gutastr. 5, Friedrichshafen, 88046",47.661849,9.502203,1,exact,OK,"Gutastr. 5, Friedrichshafen, 88046",430.0,47.661849,9.502203,1,exact,point,"Gutastraße 5, Friedrichshafen, BW, Deutschland",address,openstreetmap,
641,Hausärzte,Otto-Lilienthal-Str. 18,88046,Friedrichshafen,Bodenseekreis,"Otto-Lilienthal-Str. 18, Friedrichshafen, 88046",47.663731,9.503199,1,exact,OK,"Otto-Lilienthal-Str. 18, Friedrichshafen, 88046",432.0,47.663731,9.503199,1,exact,point,"Otto-Lilienthal-Straße 18, Friedrichshafen, BW, Deutschland",address,openstreetmap,
642,Hausärzte,Hauptstr. 40 a,88696,Owingen,Bodenseekreis,"Hauptstr. 40 a, Owingen, 88696",47.809464,9.170833,1,exact,OK,"Hauptstr. 40 a, Owingen, 88696",430.0,47.809446,9.171077,1,exact,point,"Hauptstraße 40, Owingen, BW, Deutschland",address,openstreetmap,
644,Hausärzte,Mühlbachstr. 20,78351,Bodman-Ludwigshafen,Konstanz,"Mühlbachstr. 20, Bodman-Ludwigshafen, 78351",47.819016,9.057307,1,exact,OK,"Mühlbachstr. 20, Bodman-Ludwigshafen, 78351",430.0,47.819016,9.057307,1,exact,point,"Mühlbachstraße 20, Bodman-Ludwigshafen, BW, Deutschland",address,openstreetmap,
645,Hausärzte,Gradebergstr. 20,88662,Überlingen,Bodenseekreis,"Gradebergstr. 20, Überlingen, 88662",47.76728,9.163897,1,exact,OK,"Gradebergstr. 20, Überlingen, 88662",430.0,47.76728,9.163897,1,exact,point,"Gradebergstraße 20, Überlingen, BW, Deutschland",address,openstreetmap,
646,Hausärzte,Rathausstr. 3,78351,Bodman-Ludwigshafen,Konstanz,"Rathausstr. 3, Bodman-Ludwigshafen, 78351",47.817,9.058106,1,exact,OK,"Rathaußtr. 3, Bodman-Ludwigshafen, 78351",432.0,47.817,9.058106,1,exact,point,"Rathausstraße 3, Bodman-Ludwigshafen, BW, Deutschland",address,openstreetmap,
648,Hausärzte,Hauptstr. 10,78351,Bodman-Ludwigshafen,Konstanz,"Hauptstr. 10, Bodman-Ludwigshafen, 78351",47.817451,9.05778,1,exact,OK,"Hauptstr. 10, Bodman-Ludwigshafen, 78351",430.0,47.817451,9.05778,1,exact,point,"Hauptstraße 10, Bodman-Ludwigshafen, BW, Deutschland",address,openstreetmap,
649,Hausärzte,Hauptstr. 40,88630,Pfullendorf,Sigmaringen,"Hauptstr. 40, Pfullendorf, 88630",47.925887,9.254139,1,exact,OK,"Hauptstr. 40, Pfullendorf, 88630",430.0,47.925887,9.254139,1,exact,point,"Hauptstraße 40, Pfullendorf, BW, Deutschland",address,openstreetmap,
652,Hausärzte,Freiheitsstr. 56,78224,Singen (Hohentwiel),Konstanz,"Freiheitsstr. 56, Singen (Hohentwiel), 78224",47.757754,8.848676,0.6,fallback,OK,"Freiheitßtr. 56, Singen (Hohentwiel), 78224",-36.0,47.757754,8.848676,0.6,fallback,centroid,"Singen (Hohentwiel), BW, Deutschland",locality,whosonfirst,
653,Hausärzte,Hombergstr. 4,79798,Jestetten,Waldshut,"Hombergstr. 4, Jestetten, 79798",47.650889,8.567199,1,exact,OK,"Hombergstr. 4, Jestetten, 79798",430.0,47.650889,8.567199,1,exact,point,"Hombergstraße 4, Jestetten, BW, Deutschland",address,openstreetmap,
655,Hausärzte,Friedhofstr. 11,88339,Bad Waldsee,Ravensburg,"Friedhofstr. 11, Bad Waldsee, 88339",47.918632,9.756508,1,exact,OK,"Friedhofstr. 11, Bad Waldsee, 88339",430.0,47.918632,9.756508,1,exact,point,"Friedhofstraße 11, Bad Waldsee, BW, Deutschland",address,openstreetmap,
658,Hausärzte,Ravensburger Str. 13,88239,Wangen im Allgäu,Ravensburg,"Ravensburger Str. 13, Wangen im Allgäu, 88239",47.689613,9.833669,1,exact,OK,"Ravensburger Str. 13, Wangen im Allgäu, 88239",432.0,47.689613,9.833669,1,exact,point,"Ravensburger Straße 13, Wangen im Allgäu, BW, Deutschland",address,openstreetmap,
663,Hausärzte,St.-Georg-Str. 5,78244,Gottmadingen,Konstanz,"St.-Georg-Str. 5, Gottmadingen, 78244",47.73388,8.772924,1,exact,OK,"St.-Georg-Str. 5, Gottmadingen, 78244",387.0,47.73388,8.772924,1,exact,point,"Sankt-Georg-Straße 5, Gottmadingen, BW, Deutschland",address,openstreetmap,
664,Hausärzte,Worblinger Str. 26,78224,Singen (Hohentwiel),Konstanz,"Worblinger Str. 26, Singen (Hohentwiel), 78224",47.750143,8.843812,1,exact,OK,"Worblinger Str. 26, Singen (Hohentwiel), 78224",432.0,47.750143,8.843812,1,exact,point,"Worblinger Straße 26, Singen (Hohentwiel), BW, Deutschland",address,openstreetmap,
665,Hausärzte,Gegenbaurstr. 25,88239,Wangen im Allgäu,Ravensburg,"Gegenbaurstr. 25, Wangen im Allgäu, 88239",47.688002,9.832753,1,exact,OK,"Gegenbaurstr. 25, Wangen im Allgäu, 88239",430.0,47.688002,9.832753,1,exact,point,"Gegenbaurstraße 25, Wangen im Allgäu, BW, Deutschland",address,openstreetmap,
666,Hausärzte,Rielasinger Str. 144,78224,Singen (Hohentwiel),Konstanz,"Rielasinger Str. 144, Singen (Hohentwiel), 78224",47.746548,8.843367,1,exact,OK,"Rielasinger Str. 144, Singen (Hohentwiel), 78224",432.0,47.746548,8.843367,1,exact,point,"Rielasinger Straße 144, Singen (Hohentwiel), BW, Deutschland",address,openstreetmap,
667,Hausärzte,Robert-Koch-Str. 38,88339,Bad Waldsee,Ravensburg,"Robert-Koch-Str. 38, Bad Waldsee, 88339",47.9243,9.760723,1,exact,OK,"Robert-Koch-Str. 38, Bad Waldsee, 88339",432.0,47.9243,9.760723,1,exact,point,"Robert-Koch-Straße 38, Bad Waldsee, BW, Deutschland",address,openstreetmap,
668,Hausärzte,Blaumeerstr. 21,78199,Bräunlingen,Schwarzwald-Baar-Kreis,"Blaumeerstr. 21, Bräunlingen, 78199",47.92882,8.44695,1,exact,OK,"Blaumeerstr. 21, Bräunlingen, 78199",430.0,47.92882,8.44695,1,exact,point,"Blaumeerstraße 21, Bräunlingen, BW, Deutschland",address,openstreetmap,
669,Hausärzte,Spitalplatz 6,78199,Bräunlingen,Schwarzwald-Baar-Kreis,"Spitalplatz 6, Bräunlingen, 78199",47.929274,8.445201,1,exact,OK,"Spitalplatz 6, Bräunlingen, 78199",432.0,47.929274,8.445201,1,exact,point,"Spitalplatz 6, Bräunlingen, BW, Deutschland",address,openstreetmap,
670,Hausärzte,Bahnhofstr. 5,78244,Gottmadingen,Konstanz,"Bahnhofstr. 5, Gottmadingen, 78244",47.735677,8.77614,1,exact,OK,"Bahnhofstr. 5, Gottmadingen, 78244",430.0,47.735677,8.77614,1,exact,point,"Bahnhofstraße 5, Gottmadingen, BW, Deutschland",address,openstreetmap,
