{"query_text": "Herrenstr. 29, Kißlegg, 88353", "status": "OK", "lat": 47.787985, "lon": 9.8833317, "formatted_address": "Herrenstraße 29, 88353 Kißlegg, Germany", "place_id": "ChIJOVoBfW6Ym0cR5OYki9kTxfw", "location_type": "ROOFTOP", "error": null, "requested_at": "2026-03-01T11:09:52.594798+00:00"}
{"query_text": "Rümelinstr. 7, Ravensburg, 88213", "status": "OK", "lat": 47.782245, "lon": 9.5708805, "formatted_address": "Rümelinstraße 7, 88213 Ravensburg, Germany", "place_id": "ChIJE2fp3Jium0cRZVCWGPMQup4", "location_type": "ROOFTOP", "error": null, "requested_at": "2026-03-01T11:09:52.894924+00:00"}
{"query_text": "Faberstr. 13/1, Meckenbeuren, 88074", "status": "OK", "lat": 47.70360789999999, "lon": 9.5521691, "formatted_address": "Faberstraße 13/1, 88074 Meckenbeuren, Germany", "place_id": "ChIJadD14JKpm0cRenI746_OC-w", "location_type": "ROOFTOP", "error": null, "requested_at": "2026-03-01T11:09:53.201834+00:00"}
{"query_text": "Bauhofstr. 5, Fronreute, 88273", "status": "OK", "lat": 47.8610992, "lon": 9.5913436, "formatted_address": "Bauhofstraße 5, 88273 Fronreute, Germany", "place_id": "ChIJZ_LSZoqxm0cRewdsJrK7XEc", "location_type": "ROOFTOP", "error": null, "requested_at": "2026-03-01T11:09:53.514429+00:00"}
{"query_text": "Emmelhofer Str. 7, Kißlegg, 88353", "status": "OK", "lat": 47.7889767, "lon": 9.885812399999999, "formatted_address": "Emmelhofer Str. 7, 88353 Kißlegg, Germany", "place_id": "ChIJtWDHEGyYm0cRb93X8qDSZ8M", "location_type": "ROOFTOP", "error": null, "requested_at": "2026-03-01T11:09:53.854471+00:00"}
{"query_text": "Radolfzeller Str. 65, Allensbach, 78476", "status": "OK", "lat": 47.7187899, "lon": 9.058843099999999, "formatted_address": "Radolfzeller Str. 65, 78476 Allensbach, Germany", "place_id": "ChIJRXB5c1n1mkcRfxQ89IhswQM", "location_type": "ROOFTOP", "error": null, "requested_at": "2026-03-01T11:09:54.205409+00:00"}
{"query_text": "Radolfzeller Str. 36, Allensbach, 78476", "status": "OK", "lat": 47.7184399, "lon": 9.0614376, "formatted_address": "Radolfzeller Str. 36, 78476 Allensbach, Germany", "place_id": "ChIJoU6stF71mkcRIQdqqRd0BE4", "location_type": "ROOFTOP", "error": null, "requested_at": "2026-03-01T11:09:54.549568+00:00"}
{"query_text": "Mariabrunnstr. 71, Eriskirch, 88097", "status": "OK", "lat": 47.6330766, "lon": 9.5392548, "formatted_address": "Mariabrunnstraße 71, 88097 Eriskirch, Germany", "place_id": "ChIJ_a-BEegGm0cRPndkuh0dJZo", "location_type": "ROOFTOP", "error": null, "requested_at": "2026-03-01T11:09:54.897641+00:00"}
{"query_text": "Rebweg 13, Konstanz, 78465", "status": "OK", "lat": 47.7364122, "lon": 9.1155273, "formatted_address": "Rebweg 13, 78465 Konstanz, Germany", "place_id": "ChIJsVRkk2xfmkcRJsSU04xFkdc", "location_type": "ROOFTOP", "error": null, "requested_at": "2026-03-01T11:09:55.214387+00:00"}
{"query_text": "An der Halde 9, Vogt, 88267", "status": "OK", "lat": 47.7774609, "lon": 9.76234, "formatted_address": "An d. Halde 9, 88267 Vogt, Germany", "place_id": "ChIJC_yMmXikm0cRO1ztqlzqIUc", "location_type": "ROOFTOP", "error": null, "requested_at": "2026-03-01T11:09:55.525199+00:00"}
{"query_text": "Virchowstr. 10 c, Singen (Hohentwiel), 78224", "status": "OK", "lat": 47.75959, "lon": 8.823350000000001, "formatted_address": "Virchowstraße 10C, 78224 Singen (Hohentwiel), Germany", "place_id": "ChIJPze4H219mkcRCsZL_1v1NFw", "location_type": "ROOFTOP", "error": null, "requested_at": "2026-03-01T11:09:55.826866+00:00"}
{"query_text": "Virchowstr. 10, Singen (Hohentwiel), 78224", "status": "OK", "lat": 47.7601636, "lon": 8.8238672, "formatted_address": "Virchowstraße 10, 78224 Singen (Hohentwiel), Germany", "place_id": "ChIJAQCw2Wx9mkcR8JowBGwh1k4", "location_type": "ROOFTOP", "error": null, "requested_at": "2026-03-01T11:09:56.122282+00:00"}
{"query_text": "Schaffhauser Str. 25, Grafenhausen, 79865", "status": "OK", "lat": 47.77354620000001, "lon": 8.260709400000001, "formatted_address": "Schaffhauser Str. 25, 79865 Grafenhausen, Germany", "place_id": "ChIJj2GN0fpfkEcRNbB7EBzIsF8", "location_type": "ROOFTOP", "error": null, "requested_at": "2026-03-01T11:09:56.438910+00:00"}
{"query_text": "Unterdorfstr. 3, Eigeltingen, 78253", "status": "OK", "lat": 47.8576275, "lon": 8.8990331, "formatted_address": "Unterdorfstraße 3, 78253 Eigeltingen, Germany", "place_id": "ChIJlQGY8ihlmkcR91eZu-D8lOs", "location_type": "ROOFTOP", "error": null, "requested_at": "2026-03-01T11:09:56.748383+00:00"}
{"query_text": "Strandbadstr. 16, Reichenau, 78479", "status": "OK", "lat": 47.70265879999999, "lon": 9.0593702, "formatted_address": "Strandbadstraße 16, 78479 Reichenau, Germany", "place_id": "ChIJj9_Ifz_1mkcRlXbEm-mCK0o", "location_type": "ROOFTOP", "error": null, "requested_at": "2026-03-01T11:09:57.078974+00:00"}
{"query_text": "Josef-Strobel-Str. 20, Ravensburg, 88213", "status": "OK", "lat": 47.75511239999999, "lon": 9.5771436, "formatted_address": "Josef-Strobel-Straße 20, 88213 Ravensburg, Germany", "place_id": "ChIJQzTDJkqpm0cRv4g58hd_UlA", "location_type": "ROOFTOP", "error": null, "requested_at": "2026-03-01T11:09:57.406339+00:00"}
{"query_text": "Hibiskusweg 1, Meckenbeuren, 88074", "status": "OK", "lat": 47.69204879999999, "lon": 9.5617966, "formatted_address": "Hibiskusweg 1, 88074 Meckenbeuren, Germany", "place_id": "ChIJ5U0hMMOpm0cRprWoEkkYNZQ", "location_type": "ROOFTOP", "error": null, "requested_at": "2026-03-01T11:09:57.738323+00:00"}
{"query_text": "Dr.-Franz-Reich-Str. 7, Kißlegg, 88353", "status": "OK", "lat": 47.7880081, "lon": 9.8810361, "formatted_address": "Dr.-Franz-Reich-Straße 7, 88353 Kißlegg, Germany", "place_id": "ChIJYeihGm6Ym0cRPyhOo7gIcbY", "location_type": "ROOFTOP", "error": null, "requested_at": "2026-03-01T11:09:58.075861+00:00"}
{"query_text": "Kurpfalzstr. 72, Sinsheim, 74889", "status": "OK", "lat": 49.2541006, "lon": 8.8942373, "formatted_address": "Kurpfalzstraße 72, 74889 Sinsheim, Germany", "place_id": "ChIJcbI3AZORl0cRLwOuQpxsCRA", "location_type": "ROOFTOP", "error": null, "requested_at": "2026-03-01T11:09:58.408329+00:00"}
{"query_text": "Zwingergasse 6, Sinsheim, 74889", "status": "OK", "lat": 49.2517492, "lon": 8.876978399999999, "formatted_address": "Zwingergasse 6, 74889 Sinsheim, Germany", "place_id": "ChIJGULIyp6Rl0cR5bJI7P9YpBE", "location_type": "ROOFTOP", "error": null, "requested_at": "2026-03-01T11:09:58.698380+00:00"}
{"query_text": "Obere Riedstr. 12, Mannheim, 68309", "status": "OK", "lat": 49.512838, "lon": 8.516018299999999, "formatted_address": "Ob. Riedstraße 12, 68309 Mannheim, Germany", "place_id": "ChIJWdwrcUPOl0cRGMfb3tVpG4U", "location_type": "ROOFTOP", "error": null, "requested_at": "2026-03-01T11:09:59.028106+00:00"}
{"query_text": "Staigstr. 13, Karlsruhe, 76229", "status": "OK", "lat": 49.0036584, "lon": 8.5012175, "formatted_address": "Staigstraße 13, 76229 Karlsruhe, Germany", "place_id": "ChIJ9ellqw8Jl0cReQIgaCzo3qU", "location_type": "ROOFTOP", "error": null, "requested_at": "2026-03-01T11:09:59.334169+00:00"}
{"query_text": "Im Schnarz 40, Bubsheim, 78585", "status": "OK", "lat": 48.11332059999999, "lon": 8.825101199999999, "formatted_address": "Im Schnarz 40, 78585 Bubsheim, Germany", "place_id": "ChIJNxUnYrELmkcRfHzwdTeW5h8", "location_type": "GEOMETRIC_CENTER", "error": null, "requested_at": "2026-03-01T11:09:59.659461+00:00"}
{"query_text": "Hauptstr. 71, Sinsheim, 74889", "status": "OK", "lat": 49.2534772, "lon": 8.87619, "formatted_address": "Hauptstraße 71, 74889 Sinsheim, Germany", "place_id": "ChIJJ8svGZyRl0cRBPE52L18wx0", "location_type": "ROOFTOP", "error": null, "requested_at": "2026-03-01T11:09:59.952956+00:00"}
{"query_text": "Stahläckerweg 4, Calw, 75365", "status": "OK", "lat": 48.7132515, "lon": 8.7212177, "formatted_address": "Stahläckerweg 4, 75365 Calw, Germany", "place_id": "ChIJLba0LSdol0cRnRO0_GWHWVI", "location_type": "ROOFTOP", "error": null, "requested_at": "2026-03-01T11:10:00.292998+00:00"}
{"query_text": "Wallstadter Str. 46, Ladenburg, 68526", "status": "OK", "lat": 49.47660699999999, "lon": 8.606565699999999, "formatted_address": "Wallstadter Str. 46, 68526 Ladenburg, Germany", "place_id": "ChIJCx2oWL7Fl0cRFpKFPTQ6ABc", "location_type": "ROOFTOP", "error": null, "requested_at": "2026-03-01T11:10:00.635106+00:00"}
{"query_text": "Im Speitel 56, Karlsruhe, 76229", "status": "OK", "lat": 49.0074769, "lon": 8.5056721, "formatted_address": "Im Speitel 56, 76229 Karlsruhe, Germany", "place_id": "ChIJTdBMZwkJl0cRlarOeY5SZy8", "location_type": "ROOFTOP", "error": null, "requested_at": "2026-03-01T11:10:00.931852+00:00"}
{"query_text": "Lorenz-Brentano-Allee 4, Waghäusel, 68753", "status": "OK", "lat": 49.2504394, "lon": 8.5073335, "formatted_address": "Lorenz-Brentano-Allee 4, 68753 Waghäusel, Germany", "place_id": "ChIJaYtKS3-wl0cR1pBao-mfvBw", "location_type": "ROOFTOP", "error": null, "requested_at": "2026-03-01T11:10:01.230491+00:00"}
{"query_text": "Obere Au 22, Bruchsal, 76646", "status": "OK", "lat": 49.0795712, "lon": 8.5802285, "formatted_address": "Ob. Au 22, 76646 Bruchsal, Germany", "place_id": "ChIJ3fb1YNygl0cRM4H4WHyJsy4", "location_type": "ROOFTOP", "error": null, "requested_at": "2026-03-01T11:10:01.553541+00:00"}
{"query_text": "Wilhelmstr. 15, Sinsheim, 74889", "status": "OK", "lat": 49.2542732, "lon": 8.8791997, "formatted_address": "Wilhelmstraße 15, 74889 Sinsheim, Germany", "place_id": "ChIJi7onlZuRl0cRj_206eoUWBA", "location_type": "ROOFTOP", "error": null, "requested_at": "2026-03-01T11:10:01.884040+00:00"}
{"query_text": "Hauptstr. 66, Zell am Harmersbach, 77736", "status": "OK", "lat": 48.3473674, "lon": 8.0679192, "formatted_address": "Hauptstraße 66, 77736 Zell am Harmersbach, Germany", "place_id": "ChIJAyqR6nLWkEcR2Yr_vlZFGuw", "location_type": "ROOFTOP", "error": null, "requested_at": "2026-03-01T11:10:02.178857+00:00"}
{"query_text": "Scheffelstr. 25, Ladenburg, 68526", "status": "OK", "lat": 49.4742638, "lon": 8.6042764, "formatted_address": "Scheffelstraße 25, 68526 Ladenburg, Germany", "place_id": "ChIJIf1Xk7_Fl0cRnORWmweS3o8", "location_type": "ROOFTOP", "error": null, "requested_at": "2026-03-01T11:10:02.510647+00:00"}
{"query_text": "Kraichtalstr. 6, Oberderdingen, 75038", "status": "OK", "lat": 49.0869052, "lon": 8.7728393, "formatted_address": "Kraichtalstraße 6, 75038 Oberderdingen, Germany", "place_id": "ChIJsao0uyacl0cRaCyvvCfszl0", "location_type": "ROOFTOP", "error": null, "requested_at": "2026-03-01T11:10:02.852701+00:00"}
{"query_text": "Großbottwarer Str. 45, Oberstenfeld, 71720", "status": "OK", "lat": 49.0232116, "lon": 9.3192475, "formatted_address": "Großbottwarer Str. 45, 71720 Oberstenfeld, Germany", "place_id": "ChIJ1YXTxwMzmEcRLb6kfwRhUMA", "location_type": "ROOFTOP", "error": null, "requested_at": "2026-03-01T11:10:03.142827+00:00"}
{"query_text": "Nürtinger Str. 17, Neckartailfingen, 72666", "status": "OK", "lat": 48.612459, "lon": 9.2644275, "formatted_address": "Nürtinger Str. 17, 72666 Neckartailfingen, Germany", "place_id": "ChIJ3bpaDrzrmUcRQroN9bK4SxU", "location_type": "ROOFTOP", "error": null, "requested_at": "2026-03-01T11:10:03.469792+00:00"}
{"query_text": "Bahnhofstr. 54, Lauffen am Neckar, 74348", "status": "OK", "lat": 49.0760683, "lon": 9.145540900000002, "formatted_address": "Bahnhofstraße 54, 74348 Lauffen am Neckar, Germany", "place_id": "ChIJicwaj9wrmEcRkTZhUqzRsEU", "location_type": "ROOFTOP", "error": null, "requested_at": "2026-03-01T11:10:03.814031+00:00"}
{"query_text": "Mörikeweg 8, Untergruppenbach, 74199", "status": "OK", "lat": 49.0905448, "lon": 9.271823399999999, "formatted_address": "Mörikeweg 8, 74199 Untergruppenbach, Germany", "place_id": "ChIJu_pbXRcumEcRV5vUhplGWAQ", "location_type": "ROOFTOP", "error": null, "requested_at": "2026-03-01T11:10:04.104667+00:00"}
{"query_text": "Großbottwarer Str. 5, Oberstenfeld, 71720", "status": "OK", "lat": 49.0245489, "lon": 9.320140799999999, "formatted_address": "Großbottwarer Str. 5, 71720 Oberstenfeld, Germany", "place_id": "ChIJV5RIYQEzmEcRZI5Tshx1lQs", "location_type": "ROOFTOP", "error": null, "requested_at": "2026-03-01T11:10:04.390316+00:00"}
{"query_text": "Hausener Str. 14, Krauchenwies, 72505", "status": "OK", "lat": 48.0173809, "lon": 9.250142, "formatted_address": "Hausener Str. 14, 72505 Krauchenwies, Germany", "place_id": "ChIJnxZBP1BHmkcRX_MDd3GTRfU", "location_type": "ROOFTOP", "error": null, "requested_at": "2026-03-01T11:10:04.715797+00:00"}
{"query_text": "Schulstr. 20, Bad Saulgau, 88348", "status": "OK", "lat": 48.01672540000001, "lon": 9.504303, "formatted_address": "Schulstraße 20, 88348 Bad Saulgau, Germany", "place_id": "ChIJoeiD3m81mkcRgJhwt8Rfprc", "location_type": "ROOFTOP", "error": null, "requested_at": "2026-03-01T11:10:05.009022+00:00"}
{"query_text": "Schützenstr. 8 - 10, Bad Saulgau, 88348", "status": "OK", "lat": 48.0147205, "lon": 9.5002, "formatted_address": "88348 Bad Saulgau, Germany", "place_id": "ChIJ5-d-4Ho1mkcR0LTfpbdrHwQ", "location_type": "APPROXIMATE", "error": null, "requested_at": "2026-03-01T11:10:05.343664+00:00"}
{"query_text": "Schützenstraße 8-10, Bad Saulgau, 88348", "status": "OK", "lat": 48.0181401, "lon": 9.5014063, "formatted_address": "Schützenstraße 8-10, 88348 Bad Saulgau, Germany", "place_id": "ChIJq-TfqnE1mkcRjJ8meYCt4ts", "location_type": "ROOFTOP", "error": null, "requested_at": "2026-03-01T11:10:05.671121+00:00"}
{"query_text": "Hinter Alenberg 21, Laichingen, 89150", "status": "OK", "lat": 48.4918272, "lon": 9.6805949, "formatted_address": "Hinter Alenberg 21, 89150 Laichingen, Germany", "place_id": "ChIJV0-ZMECdmUcRsmx2FPvtuPI", "location_type": "ROOFTOP", "error": null, "requested_at": "2026-03-01T11:10:06.013849+00:00"}
{"query_text": "Werderstr. 3, Bad Saulgau, 88348", "status": "OK", "lat": 48.015631, "lon": 9.5006415, "formatted_address": "Werderstraße 3, 88348 Bad Saulgau, Germany", "place_id": "ChIJrbzfgXo1mkcRPyKI8X89TC0", "location_type": "ROOFTOP", "error": null, "requested_at": "2026-03-01T11:10:06.336116+00:00"}
{"query_text": "Willy-Brandt-Allee 2, Schwäbisch Hall, 74523", "status": "OK", "lat": 49.1091985, "lon": 9.763434199999999, "formatted_address": "Willy-Brandt-Allee 2, 74523 Schwäbisch Hall, Germany", "place_id": "ChIJ6_PVN4dQmEcR7zmCQABFbg4", "location_type": "ROOFTOP", "error": null, "requested_at": "2026-03-01T11:10:06.674011+00:00"}
{"query_text": "Kaiserstr. 58, Bad Saulgau, 88348", "status": "OK", "lat": 48.0166795, "lon": 9.502546299999999, "formatted_address": "Kaiserstraße 58, 88348 Bad Saulgau, Germany", "place_id": "ChIJu2DNP3A1mkcRVuBvH2Zb7Ng", "location_type": "ROOFTOP", "error": null, "requested_at": "2026-03-01T11:10:07.009029+00:00"}
{"query_text": "Radstr. 3, Laichingen, 89150", "status": "OK", "lat": 48.4903827, "lon": 9.6866756, "formatted_address": "Radstraße 3, 89150 Laichingen, Germany", "place_id": "ChIJPzWWWkKdmUcRR_ws4vLJPg0", "location_type": "ROOFTOP", "error": null, "requested_at": "2026-03-01T11:10:07.331188+00:00"}
{"query_text": "Feldstetterstr. 64, Laichingen, 89150", "status": "OK", "lat": 48.49286009999999, "lon": 9.6785952, "formatted_address": "89150 Laichingen, Germany", "place_id": "ChIJvbVFVFqdmUcREHGSDLtrHxw", "location_type": "APPROXIMATE", "error": null, "requested_at": "2026-03-01T11:10:07.634673+00:00"}
{"query_text": "Bahnhofstr. 44, Lauda-Königshofen, 97922", "status": "OK", "lat": 49.5656788, "lon": 9.7082436, "formatted_address": "Bahnhofstraße 44, 97922 Lauda-Königshofen, Germany", "place_id": "ChIJSd7vT_90mEcRd9rH-y0Ypic", "location_type": "ROOFTOP", "error": null, "requested_at": "2026-03-01T11:10:07.926955+00:00"}
{"query_text": "Josef-Schmitt-Str. 42, Lauda-Königshofen, 97922", "status": "OK", "lat": 49.5658275, "lon": 9.7062361, "formatted_address": "Josef-Schmitt-Straße 42, 97922 Lauda-Königshofen, Germany", "place_id": "ChIJ_9KjKP90mEcRulQ9kgsT_Ik", "location_type": "ROOFTOP", "error": null, "requested_at": "2026-03-01T11:10:08.263763+00:00"}
{"query_text": "Wiesenstr. 11, Knittlingen, 75438", "status": "OK", "lat": 49.02401440000001, "lon": 8.7514164, "formatted_address": "Wiesenstraße 11, 75438 Knittlingen, Germany", "place_id": "ChIJMd2xMQZ2l0cRrPfpqzrDSSM", "location_type": "ROOFTOP", "error": null, "requested_at": "2026-03-01T11:10:08.569055+00:00"}
{"query_text": "Schillerstr. 5 a, Lauda-Königshofen, 97922", "status": "OK", "lat": 49.56698309999999, "lon": 9.704864899999999, "formatted_address": "Schillerstraße 5A, 97922 Lauda-Königshofen, Germany", "place_id": "ChIJ919w7P50mEcRYEO8qXcyLHM", "location_type": "ROOFTOP", "error": null, "requested_at": "2026-03-01T11:10:08.877795+00:00"}
{"query_text": "Gartenstr. 8, Ispringen, 75228", "status": "OK", "lat": 48.9157501, "lon": 8.6709778, "formatted_address": "Gartenstraße 8, 75228 Ispringen, Germany", "place_id": "ChIJX6y8ElNyl0cR-5lkNFzuBbQ", "location_type": "ROOFTOP", "error": null, "requested_at": "2026-03-01T11:10:09.182127+00:00"}
{"query_text": "Tannenweg 12, Waldachtal, 72178", "status": "OK", "lat": 48.4870929, "lon": 8.603285699999999, "formatted_address": "Tannenweg 12, 72178 Waldachtal, Germany", "place_id": "ChIJBbUoOaNOl0cRtp8YCMjnkb4", "location_type": "ROOFTOP", "error": null, "requested_at": "2026-03-01T11:10:09.480058+00:00"}
{"query_text": "Bahnhofstr. 20, Sulzbach an der Murr, 71560", "status": "OK", "lat": 49.001205, "lon": 9.5006787, "formatted_address": "Bahnhofstraße 20, 71560 Sulzbach an der Murr, Germany", "place_id": "ChIJUan-De9KmEcREv-71WdzlDk", "location_type": "ROOFTOP", "error": null, "requested_at": "2026-03-01T11:10:09.844700+00:00"}
{"query_text": "Hauptstr. 11, Kusterdingen, 72127", "status": "OK", "lat": 48.4996222, "lon": 9.1017023, "formatted_address": "Hauptstraße 11, 72127 Kusterdingen, Germany", "place_id": "ChIJlTFALHPwmUcR6lfTNri-Uho", "location_type": "ROOFTOP", "error": null, "requested_at": "2026-03-01T11:10:10.175410+00:00"}
{"query_text": "Schulstr. 1, Ispringen, 75228", "status": "OK", "lat": 48.9151473, "lon": 8.671623, "formatted_address": "Schulstraße 1, 75228 Ispringen, Germany", "place_id": "ChIJA2zHB1Nyl0cR_iNfBq8wFfk", "location_type": "ROOFTOP", "error": null, "requested_at": "2026-03-01T11:10:10.502956+00:00"}
{"query_text": "Schwerzerallee 57, Schwäbisch Gmünd, 73525", "status": "OK", "lat": 48.7922229, "lon": 9.7789512, "formatted_address": "Schwerzerallee 57, 73525 Schwäbisch Gmünd, Germany", "place_id": "ChIJ_4QBiHSomUcR1IMCy-f7AQM", "location_type": "GEOMETRIC_CENTER", "error": null, "requested_at": "2026-03-01T11:10:10.799891+00:00"}
{"query_text": "Graf-Casimir-Str. 1, Ingelfingen, 74653", "status": "OK", "lat": 49.2973252, "lon": 9.652294099999999, "formatted_address": "Graf-Casimir-Straße 1, 74653 Ingelfingen, Germany", "place_id": "ChIJs_MPLg5qmEcRqwREQ7tppYA", "location_type": "ROOFTOP", "error": null, "requested_at": "2026-03-01T11:10:11.135132+00:00"}
{"query_text": "Am Reinhardshof 10, Wertheim, 97877", "status": "OK", "lat": 49.7541682, "lon": 9.5056052, "formatted_address": "Am Reinhardshof 10, 97877 Wertheim, Germany", "place_id": "ChIJG5dhWYCvokcRl-FYpelCrd8", "location_type": "ROOFTOP", "error": null, "requested_at": "2026-03-01T11:10:11.438276+00:00"}
{"query_text": "Alte Landstr. 47, Erbach, 89155", "status": "OK", "lat": 48.30444180000001, "lon": 9.905850599999999, "formatted_address": "Alte Landstraße 47, 89155 Erbach, Germany", "place_id": "ChIJWdAmB2VimUcRqjSlHeFyjq8", "location_type": "ROOFTOP", "error": null, "requested_at": "2026-03-01T11:10:11.737676+00:00"}
{"query_text": "Mühlstr. 2, Ingelfingen, 74653", "status": "OK", "lat": 49.3003926, "lon": 9.6536248, "formatted_address": "Mühlstraße 2, 74653 Ingelfingen, Germany", "place_id": "ChIJT4p5ABFqmEcRU-dObdFcJ7g", "location_type": "ROOFTOP", "error": null, "requested_at": "2026-03-01T11:10:12.072419+00:00"}
{"query_text": "Im Dorf 3, Bempflingen, 72658", "status": "OK", "lat": 48.5726922, "lon": 9.2669829, "formatted_address": "Im Dorf 3, 72658 Bempflingen, Germany", "place_id": "ChIJL8U1L2LsmUcREQV7kKHeofE", "location_type": "ROOFTOP", "error": null, "requested_at": "2026-03-01T11:10:12.372924+00:00"}
{"query_text": "Waldstr. 143, Mannheim, 68305", "status": "OK", "lat": 49.5247345, "lon": 8.5006658, "formatted_address": "Waldstraße 143, 68305 Mannheim, Germany", "place_id": "ChIJu3bmgw3Ol0cRU6BC03iYhc0", "location_type": "ROOFTOP", "error": null, "requested_at": "2026-03-01T11:10:12.699735+00:00"}
{"query_text": "Wetzgauer Str. 52, Schwäbisch Gmünd, 73527", "status": "OK", "lat": 48.8150926, "lon": 9.7565153, "formatted_address": "Wetzgauer Str. 52, 73527 Schwäbisch Gmünd, Germany", "place_id": "ChIJOXSN4vOomUcRYQXeGj0KsjI", "location_type": "ROOFTOP", "error": null, "requested_at": "2026-03-01T11:10:12.990850+00:00"}
{"query_text": "Eutighofer Str. 24, Schwäbisch Gmünd, 73525", "status": "OK", "lat": 48.78930390000001, "lon": 9.7762358, "formatted_address": "Eutighofer Str. 24, 73525 Schwäbisch Gmünd, Germany", "place_id": "ChIJd3Q2lXWomUcR5_dlbnC5N20", "location_type": "ROOFTOP", "error": null, "requested_at": "2026-03-01T11:10:13.330825+00:00"}
{"query_text": "Kugelberg 7, Hohentengen, 88367", "status": "OK", "lat": 48.0255488, "lon": 9.3806377, "formatted_address": "88367 Hohentengen, Germany", "place_id": "ChIJnXeRyNE3mkcRsHuSDLtrHxw", "location_type": "APPROXIMATE", "error": null, "requested_at": "2026-03-01T11:10:13.627842+00:00"}
{"query_text": "Römerstr. 7, Karlsruhe, 76189", "status": "OK", "lat": 49.0038138, "lon": 8.3371202, "formatted_address": "Römerstraße 7, 76189 Karlsruhe, Germany", "place_id": "ChIJ_6HscsoGl0cROr7t4EIQ39Q", "location_type": "ROOFTOP", "error": null, "requested_at": "2026-03-01T11:10:13.921720+00:00"}
{"query_text": "Ulmer Str. 6, Villingen-Schwenningen, 78054", "status": "OK", "lat": 48.0709428, "lon": 8.5257958, "formatted_address": "Ulmer Str. 6, 78054 Villingen-Schwenningen, Germany", "place_id": "ChIJPSQcZMOXkEcR9OjqLMMR6iY", "location_type": "ROOFTOP", "error": null, "requested_at": "2026-03-01T11:10:14.218887+00:00"}
{"query_text": "Bürkstr. 87, Villingen-Schwenningen, 78054", "status": "OK", "lat": 48.0640061, "lon": 8.5257317, "formatted_address": "Bürkstraße 87, 78054 Villingen-Schwenningen, Germany", "place_id": "ChIJlQy088CXkEcR3yRZuY7sIps", "location_type": "ROOFTOP", "error": null, "requested_at": "2026-03-01T11:10:14.561281+00:00"}
{"query_text": "Industriestr. 55, Mühlacker, 75417", "status": "OK", "lat": 48.9538878, "lon": 8.855748799999999, "formatted_address": "Industriestraße 55, 75417 Mühlacker, Germany", "place_id": "ChIJVZBBZ415l0cRQxQhlzZZMgY", "location_type": "ROOFTOP", "error": null, "requested_at": "2026-03-01T11:10:14.848754+00:00"}
{"query_text": "Enges Gässle 2/1, Jettingen, 71131", "status": "OK", "lat": 48.5766003, "lon": 8.7748236, "formatted_address": "Enges Gässle 2/1, 71131 Jettingen, Germany", "place_id": "ChIJDzxZ5E9al0cRSgvDGl-Y1lU", "location_type": "ROOFTOP", "error": null, "requested_at": "2026-03-01T11:10:15.139583+00:00"}
{"query_text": "Besselstr. 8, Karlsruhe, 76185", "status": "OK", "lat": 49.003101, "lon": 8.3436355, "formatted_address": "Besselstraße 8, 76185 Karlsruhe, Germany", "place_id": "ChIJy1_THsgGl0cR0lHIQ44d68c", "location_type": "ROOFTOP", "error": null, "requested_at": "2026-03-01T11:10:15.479229+00:00"}
{"query_text": "Bismarckstr. 9, Furtwangen im Schwarzwald, 78120", "status": "OK", "lat": 48.0522906, "lon": 8.2045811, "formatted_address": "Bismarckstraße 9, 78120 Furtwangen im Schwarzwald, Germany", "place_id": "ChIJVd0six3pkEcRokplo4G3p4M", "location_type": "ROOFTOP", "error": null, "requested_at": "2026-03-01T11:10:15.800207+00:00"}
{"query_text": "Hauptstr. 24, St. Georgen im Schwarzwald, 78112", "status": "OK", "lat": 48.1248495, "lon": 8.330268, "formatted_address": "Hauptstraße 24, 78112 St. Georgen, Germany", "place_id": "ChIJH9oP103AkEcRdlYA4YwaxlI", "location_type": "ROOFTOP", "error": null, "requested_at": "2026-03-01T11:10:16.141875+00:00"}
{"query_text": "Gerwigstr. 31, St. Georgen im Schwarzwald, 78112", "status": "OK", "lat": 48.1248955, "lon": 8.3320302, "formatted_address": "Gerwigstraße 31, 78112 St. Georgen, Germany", "place_id": "ChIJuxj-Z07AkEcROnq92NTaf_Y", "location_type": "ROOFTOP", "error": null, "requested_at": "2026-03-01T11:10:16.439341+00:00"}
{"query_text": "Kelterstr. 6/1, Eisingen, 75239", "status": "OK", "lat": 48.94832700000001, "lon": 8.6691956, "formatted_address": "Kelterstraße 6/1, 75239 Eisingen, Germany", "place_id": "ChIJ0aA01nlzl0cRQnjP4ZPy_rg", "location_type": "ROOFTOP", "error": null, "requested_at": "2026-03-01T11:10:16.767662+00:00"}
{"query_text": "Friedrichstr. 2, Furtwangen im Schwarzwald, 78120", "status": "OK", "lat": 48.0525352, "lon": 8.2058469, "formatted_address": "Friedrichstraße 2, 78120 Furtwangen im Schwarzwald, Germany", "place_id": "ChIJxfNsvh3pkEcRUZAAOMCvw1E", "location_type": "ROOFTOP", "error": null, "requested_at": "2026-03-01T11:10:17.060568+00:00"}
{"query_text": "Pforzheimer Str. 10, Eisingen, 75239", "status": "OK", "lat": 48.9471942, "lon": 8.6681477, "formatted_address": "Pforzheimer Str. 10, 75239 Eisingen, Germany", "place_id": "ChIJN5yia3dzl0cRN_aPJVyUW8M", "location_type": "ROOFTOP", "error": null, "requested_at": "2026-03-01T11:10:17.412576+00:00"}
{"query_text": "Lindenstr. 3, Furtwangen im Schwarzwald, 78120", "status": "OK", "lat": 48.05078109999999, "lon": 8.206863499999999, "formatted_address": "Lindenstraße 3, 78120 Furtwangen im Schwarzwald, Germany", "place_id": "ChIJpVn2gB7pkEcRrlH8sLS1eRg", "location_type": "ROOFTOP", "error": null, "requested_at": "2026-03-01T11:10:17.741631+00:00"}
{"query_text": "Untere Hauptstraße 40, Wurmlingen, 78573", "status": "OK", "lat": 48.0013984, "lon": 8.7798585, "formatted_address": "u. Hauptstraße 40, 78573 Wurmlingen, Germany", "place_id": "ChIJdSi9T8p1mkcRh_PR6M3MPOw", "location_type": "ROOFTOP", "error": null, "requested_at": "2026-03-01T11:10:18.036317+00:00"}
{"query_text": "Lußhardtstr. 14, Altlußheim, 68804", "status": "OK", "lat": 49.2970903, "lon": 8.5034438, "formatted_address": "Lusshardtstraße 14, 68804 Altlußheim, Germany", "place_id": "ChIJR0bYqUy3l0cRymPlU4lgQqQ", "location_type": "ROOFTOP", "error": null, "requested_at": "2026-03-01T11:10:18.339926+00:00"}
{"query_text": "Heilbronner Str. 29, Sinsheim, 74889", "status": "OK", "lat": 49.2520309, "lon": 8.903884999999999, "formatted_address": "Heilbronner Str. 29, 74889 Sinsheim, Germany", "place_id": "ChIJg4yfvO6Rl0cRpCLE-XJsgys", "location_type": "ROOFTOP", "error": null, "requested_at": "2026-03-01T11:10:18.666672+00:00"}
{"query_text": "Obere Straße 15, Wurmlingen, 78573", "status": "OK", "lat": 48.003953, "lon": 8.778230599999999, "formatted_address": "Ob. Str. 15, 78573 Wurmlingen, Germany", "place_id": "ChIJxX9XBrZ1mkcRaHNI76NXdHc", "location_type": "ROOFTOP", "error": null, "requested_at": "2026-03-01T11:10:18.960914+00:00"}
{"query_text": "Östliche Rheinbrückenstr. 28, Karlsruhe, 76187", "status": "OK", "lat": 49.0306481, "lon": 8.3419124, "formatted_address": "Östliche Rheinbrückenstraße 28, 76187 Karlsruhe, Germany", "place_id": "ChIJ14443iwHl0cRrRBDJaPdZnQ", "location_type": "ROOFTOP", "error": null, "requested_at": "2026-03-01T11:10:19.258674+00:00"}
{"query_text": "Franz-Schubert-Str. 15, Oberkirch, 77704", "status": "OK", "lat": 48.5350903, "lon": 8.079894699999999, "formatted_address": "Franz-Schubert-Straße 15, 77704 Oberkirch, Germany", "place_id": "ChIJ__ifyRfWlkcRK-IwDnHkkWY", "location_type": "ROOFTOP", "error": null, "requested_at": "2026-03-01T11:10:19.556292+00:00"}
{"query_text": "Bahnhofstr. 4a, Bad Dürrheim, 78073", "status": "OK", "lat": 48.0189402, "lon": 8.5303845, "formatted_address": "Bahnhofstraße 4 a, 78073 Bad Dürrheim, Germany", "place_id": "ChIJSx_57lyXkEcRWMLZh67eKSU", "location_type": "ROOFTOP", "error": null, "requested_at": "2026-03-01T11:10:19.893828+00:00"}
{"query_text": "Bahnhofstr. 4 a, Bad Dürrheim, 78073", "status": "OK", "lat": 48.0189402, "lon": 8.5303845, "formatted_address": "Bahnhofstraße 4 a, 78073 Bad Dürrheim, Germany", "place_id": "ChIJSx_57lyXkEcRWMLZh67eKSU", "location_type": "ROOFTOP", "error": null, "requested_at": "2026-03-01T11:10:20.191369+00:00"}
{"query_text": "Saarlandstr. 85, Karlsruhe, 76187", "status": "OK", "lat": 49.0301094, "lon": 8.340845999999999, "formatted_address": "Saarlandstraße 85, 76187 Karlsruhe, Germany", "place_id": "ChIJSaD9ziwHl0cRfUXV9wXVwho", "location_type": "ROOFTOP", "error": null, "requested_at": "2026-03-01T11:10:20.477892+00:00"}
{"query_text": "Gebrüder-Grimm-Weg 6, Altlußheim, 68804", "status": "OK", "lat": 49.2974277, "lon": 8.5057753, "formatted_address": "Gebrüder-Grimm-Weg 6, 68804 Altlußheim, Germany", "place_id": "ChIJjcyIw0y3l0cRq_r5PUKSSQU", "location_type": "ROOFTOP", "error": null, "requested_at": "2026-03-01T11:10:20.799956+00:00"}
{"query_text": "Auf dem Rain 19, Rottenburg am Neckar, 72108", "status": "OK", "lat": 48.47642829999999, "lon": 8.9718333, "formatted_address": "Auf dem Rain 19, 72108 Rottenburg am Neckar, Germany", "place_id": "ChIJ5dihxHH8mUcRiS07s9GIzO8", "location_type": "ROOFTOP", "error": null, "requested_at": "2026-03-01T11:10:21.096961+00:00"}
{"query_text": "Rembrandtstr. 12, Pforzheim, 75173", "status": "OK", "lat": 48.8829493, "lon": 8.6833935, "formatted_address": "Rembrandtstraße 12, 75173 Pforzheim, Germany", "place_id": "ChIJXbmyOQxyl0cR-hUeSvq2YXo", "location_type": "ROOFTOP", "error": null, "requested_at": "2026-03-01T11:10:21.407988+00:00"}
{"query_text": "Gartenstr. 30, Neidenstein, 74933", "status": "OK", "lat": 49.319494, "lon": 8.8852087, "formatted_address": "Gartenstraße 30, 74933 Neidenstein, Germany", "place_id": "ChIJdc5kVxuTl0cRSrYbb7rCjSA", "location_type": "ROOFTOP", "error": null, "requested_at": "2026-03-01T11:10:21.739373+00:00"}
{"query_text": "Heilbronner Str. 18, Untergruppenbach, 74199", "status": "OK", "lat": 49.0907779, "lon": 9.275974399999999, "formatted_address": "Heilbronner Str. 18, 74199 Untergruppenbach, Germany", "place_id": "ChIJ3R1BCBkumEcR_w4BKNehIHE", "location_type": "ROOFTOP", "error": null, "requested_at": "2026-03-01T11:10:22.098985+00:00"}
{"query_text": "Mörikestr. 10, Walheim, 74399", "status": "OK", "lat": 49.0157755, "lon": 9.152532299999999, "formatted_address": "Mörikestraße 10, 74399 Walheim, Germany", "place_id": "ChIJ39taE1krmEcRp-LpjcNb4Vg", "location_type": "ROOFTOP", "error": null, "requested_at": "2026-03-01T11:10:22.427443+00:00"}
{"query_text": "Kreuzotterweg 15, Stuttgart, 70499", "status": "OK", "lat": 48.80116719999999, "lon": 9.0857835, "formatted_address": "Kreuzotterweg 15, 70499 Stuttgart, Germany", "place_id": "ChIJ_3YERn7ZmUcRvesIy8KimwY", "location_type": "ROOFTOP", "error": null, "requested_at": "2026-03-01T11:10:22.755766+00:00"}
{"query_text": "Obere Bachstr. 25, Albstadt, 72461", "status": "OK", "lat": 48.2566874, "lon": 9.014238599999999, "formatted_address": "Ob. Bachstraße 25, 72461 Albstadt, Germany", "place_id": "ChIJRawSNs0EmkcRwHloHKuixBU", "location_type": "ROOFTOP", "error": null, "requested_at": "2026-03-01T11:10:23.054351+00:00"}
{"query_text": "Lagerstr. 10 a, Stetten am kalten Markt, 72510", "status": "OK", "lat": 48.1233381, "lon": 9.0782536, "formatted_address": "Lagerstraße 10a, 72510 Stetten am kalten Markt, Germany", "place_id": "ChIJt2MW26sWmkcRGJjUxMopl2k", "location_type": "ROOFTOP", "error": null, "requested_at": "2026-03-01T11:10:23.347328+00:00"}
{"query_text": "Adlerstraße 14, Albstadt, 72461", "status": "OK", "lat": 48.25534, "lon": 9.01395, "formatted_address": "Adlerstraße 14, 72461 Albstadt, Germany", "place_id": "ChIJ74gNqtIEmkcRmZglvWMUs7U", "location_type": "ROOFTOP", "error": null, "requested_at": "2026-03-01T11:10:23.689791+00:00"}
{"query_text": "Heiligkreuzstr. 2, Lauffen am Neckar, 74348", "status": "OK", "lat": 49.0762193, "lon": 9.1496298, "formatted_address": "Heiligkreuzstraße 2, 74348 Lauffen am Neckar, Germany", "place_id": "ChIJkW3Hn90rmEcR5Z333oa-Noo", "location_type": "ROOFTOP", "error": null, "requested_at": "2026-03-01T11:10:23.987381+00:00"}
{"query_text": "Bahnhofstr. 26, Lauffen am Neckar, 74348", "status": "OK", "lat": 49.0762124, "lon": 9.1491712, "formatted_address": "Bahnhofstraße 26, 74348 Lauffen am Neckar, Germany", "place_id": "ChIJhbMKCt0rmEcROxtVHYrLUFw", "location_type": "ROOFTOP", "error": null, "requested_at": "2026-03-01T11:10:24.311423+00:00"}
{"query_text": "Brackenheimer Str. 20, Güglingen, 74363", "status": "OK", "lat": 49.0684272, "lon": 9.0260799, "formatted_address": "Brackenheimer Str. 20, 74363 Güglingen, Germany", "place_id": "ChIJrwFO4e6Bl0cRytM2Wi22xpQ", "location_type": "ROOFTOP", "error": null, "requested_at": "2026-03-01T11:10:24.609753+00:00"}
{"query_text": "Hauptstr. 41, Beilstein, 71717", "status": "OK", "lat": 49.0400468, "lon": 9.3151574, "formatted_address": "Hauptstraße 41, 71717 Beilstein, Germany", "place_id": "ChIJVWmW900ymEcRQKXLNxUCPgg", "location_type": "ROOFTOP", "error": null, "requested_at": "2026-03-01T11:10:24.933764+00:00"}
{"query_text": "Im Köchersgrund 17, Beilstein, 71717", "status": "OK", "lat": 49.0347224, "lon": 9.3144673, "formatted_address": "Im Köchersgrund 17, 71717 Beilstein, Germany", "place_id": "ChIJC2oydFQymEcRbklpZW0KNQo", "location_type": "ROOFTOP", "error": null, "requested_at": "2026-03-01T11:10:25.228688+00:00"}
{"query_text": "Ringelnatzweg 3, Sigmaringendorf, 72517", "status": "OK", "lat": 48.0684339, "lon": 9.263014499999999, "formatted_address": "Ringelnatzweg 3, 72517 Sigmaringendorf, Germany", "place_id": "ChIJn933ZCk5mkcRxEHp_usQDLU", "location_type": "ROOFTOP", "error": null, "requested_at": "2026-03-01T11:10:25.521906+00:00"}
{"query_text": "Marktstr. 11, Albstadt, 72458", "status": "OK", "lat": 48.2126557, "lon": 9.0271454, "formatted_address": "Marktstraße 11, 72458 Albstadt, Germany", "place_id": "ChIJUznYa5gamkcRzdgL9AwXwQ0", "location_type": "ROOFTOP", "error": null, "requested_at": "2026-03-01T11:10:25.816126+00:00"}
{"query_text": "Marktstr. 44, Albstadt, 72458", "status": "OK", "lat": 48.21303289999999, "lon": 9.0252052, "formatted_address": "Marktstraße 44, 72458 Albstadt, Germany", "place_id": "ChIJtZgLmKIamkcRcKxWoayY5fo", "location_type": "ROOFTOP", "error": null, "requested_at": "2026-03-01T11:10:26.128191+00:00"}
{"query_text": "Schulstr. 9, Lauffen am Neckar, 74348", "status": "OK", "lat": 49.0751797, "lon": 9.150705, "formatted_address": "Schulstraße 9, 74348 Lauffen am Neckar, Germany", "place_id": "ChIJ3TcWYt0rmEcRZwcDBcHslMM", "location_type": "ROOFTOP", "error": null, "requested_at": "2026-03-01T11:10:26.464720+00:00"}
{"query_text": "Wilhelm-Schussen-Straße 44, Bad Schussenried, 88427", "status": "OK", "lat": 48.0071993, "lon": 9.6556126, "formatted_address": "Wilhelm-Schussen-Straße 44, 88427 Bad Schussenried, Germany", "place_id": "ChIJS-yMfe7Jm0cRWpyKsyRzHbE", "location_type": "ROOFTOP", "error": null, "requested_at": "2026-03-01T11:10:26.761953+00:00"}
{"query_text": "Rastatter Str. 17-19, Pforzheim, 75179", "status": "OK", "lat": 48.8977809, "lon": 8.6654801, "formatted_address": "Rastatter Str. 17-19, 75179 Pforzheim, Germany", "place_id": "ChIJMyaSil1yl0cRM4Y1-L6itB4", "location_type": "ROOFTOP", "error": null, "requested_at": "2026-03-01T11:10:27.094802+00:00"}
{"query_text": "Badstr. 30, Göppingen, 73035", "status": "OK", "lat": 48.6676606, "lon": 9.6155297, "formatted_address": "Badstraße 30, 73035 Göppingen, Germany", "place_id": "ChIJ8Y-zg1mimUcRm3P2Y6NNyx8", "location_type": "ROOFTOP", "error": null, "requested_at": "2026-03-01T11:10:27.383322+00:00"}
{"query_text": "Breitwiesen 3, Michelbach an der Bilz, 74544", "status": "OK", "lat": 49.0677664, "lon": 9.762039099999999, "formatted_address": "Breitwiesen 3, 74544 Michelbach an der Bilz, Germany", "place_id": "ChIJw_sRQBtRmEcRouxiYlaSKcE", "location_type": "ROOFTOP", "error": null, "requested_at": "2026-03-01T11:10:27.704394+00:00"}
{"query_text": "Jahnstr. 5, Brackenheim, 74336", "status": "OK", "lat": 49.0686403, "lon": 9.088770499999999, "formatted_address": "Jahnstraße 5, 74336 Brackenheim, Germany", "place_id": "ChIJSbbiSRMqmEcRolSxVglUZ5k", "location_type": "ROOFTOP", "error": null, "requested_at": "2026-03-01T11:10:28.043036+00:00"}
{"query_text": "Bahnhofstr. 9, Münsingen, 72525", "status": "OK", "lat": 48.40921970000001, "lon": 9.4911786, "formatted_address": "Bahnhofstraße 9, 72525 Münsingen, Germany", "place_id": "ChIJJVVllOGFmUcRBbRdLlKUhYU", "location_type": "ROOFTOP", "error": null, "requested_at": "2026-03-01T11:10:28.367649+00:00"}
{"query_text": "Untere Schubertstr. 1, Gemmrigheim, 74376", "status": "OK", "lat": 49.0287003, "lon": 9.1542646, "formatted_address": "u. Schubertstraße 1, 74376 Gemmrigheim, Germany", "place_id": "ChIJQZBQDWQrmEcRmSD-BwHh_ik", "location_type": "ROOFTOP", "error": null, "requested_at": "2026-03-01T11:10:28.667980+00:00"}
{"query_text": "Kitzenbühlstr 7, Mühlheim an der Donau, 78570", "status": "OK", "lat": 48.03161559999999, "lon": 8.881798999999999, "formatted_address": "Kitzenbühlstraße 7, 78570 Mühlheim an der Donau, Germany", "place_id": "ChIJQ6v16RlzmkcRxZQP1eWW_-Q", "location_type": "ROOFTOP", "error": null, "requested_at": "2026-03-01T11:10:28.997981+00:00"}
{"query_text": "Bismarckstr. 13, Wertheim, 97877", "status": "OK", "lat": 49.7615582, "lon": 9.5107386, "formatted_address": "Bismarckstraße 13, 97877 Wertheim, Germany", "place_id": "ChIJseCMU32lokcRaEL8ehFlwPM", "location_type": "ROOFTOP", "error": null, "requested_at": "2026-03-01T11:10:29.360430+00:00"}
{"query_text": "Bahnhofstr. 23, Wertheim, 97877", "status": "OK", "lat": 49.76390259999999, "lon": 9.511064, "formatted_address": "49.763847,9.511128, Bahnhofstraße 23, 97877 Wertheim, Germany", "place_id": "ChIJScXZKYivokcR1qy6PM5vlzU", "location_type": "ROOFTOP", "error": null, "requested_at": "2026-03-01T11:10:29.694540+00:00"}
{"query_text": "Eschenhof 31, Mannheim, 68305", "status": "OK", "lat": 49.5370829, "lon": 8.504973, "formatted_address": "Eschenhof 31, 68305 Mannheim, Germany", "place_id": "ChIJzzqqqhzOl0cRcC1eh6EufvQ", "location_type": "ROOFTOP", "error": null, "requested_at": "2026-03-01T11:10:29.999511+00:00"}
{"query_text": "Hospitalstr. 8, Wertheim, 97877", "status": "OK", "lat": 49.7596022, "lon": 9.5126449, "formatted_address": "Hospitalstraße 8, 97877 Wertheim, Germany", "place_id": "ChIJk6BrA32lokcRzXjEY0WnvT8", "location_type": "ROOFTOP", "error": null, "requested_at": "2026-03-01T11:10:30.285739+00:00"}
{"query_text": "Gerbergasse 10, Wertheim, 97877", "status": "OK", "lat": 49.7610165, "lon": 9.5152819, "formatted_address": "Gerbergasse 10, 97877 Wertheim, Germany", "place_id": "ChIJv3xCtnylokcR4SwJOk9_jdE", "location_type": "ROOFTOP", "error": null, "requested_at": "2026-03-01T11:10:30.586235+00:00"}
{"query_text": "Alter Rain 2, Haigerloch, 72401", "status": "OK", "lat": 48.3454981, "lon": 8.7756489, "formatted_address": "Alter Rain 2, 72401 Haigerloch, Germany", "place_id": "ChIJkUQ3SAirkEcRY5jrvtQNfrI", "location_type": "ROOFTOP", "error": null, "requested_at": "2026-03-01T11:10:30.883368+00:00"}
{"query_text": "St.-Leoner-Str. 14, Neulußheim, 68809", "status": "OK", "lat": 49.2930198, "lon": 8.5241007, "formatted_address": "Sankt-Leoner-Straße 14, 68809 Neulußheim, Germany", "place_id": "ChIJw9z6UAC6l0cRYSVlWZezp4I", "location_type": "ROOFTOP", "error": null, "requested_at": "2026-03-01T11:10:31.178738+00:00"}
{"query_text": "Schulstr. 3, Mötzingen, 71159", "status": "OK", "lat": 48.5331375, "lon": 8.774258699999999, "formatted_address": "Schulstraße 3, 71159 Mötzingen, Germany", "place_id": "ChIJXwSCd71Ql0cRwrm72qPtLfQ", "location_type": "ROOFTOP", "error": null, "requested_at": "2026-03-01T11:10:31.499382+00:00"}
{"query_text": "Am Wehrgraben 1, Stutensee, 76297", "status": "OK", "lat": 49.0909385, "lon": 8.5072972, "formatted_address": "Am Wehrgraben 1, 76297 Stutensee, Germany", "place_id": "ChIJZ3CmFqunl0cROt0MenwYADQ", "location_type": "ROOFTOP", "error": null, "requested_at": "2026-03-01T11:10:31.830127+00:00"}
{"query_text": "In der Neckarhelle 105, Heidelberg, 69118", "status": "OK", "lat": 49.4173252, "lon": 8.7454996, "formatted_address": "In d. Neckarhelle 105, 69118 Heidelberg, Germany", "place_id": "ChIJg0FOOMHBl0cRPVtSsfo3hsA", "location_type": "ROOFTOP", "error": null, "requested_at": "2026-03-01T11:10:32.151536+00:00"}
{"query_text": "Hauptstr. 83, Oberkirch, 77704", "status": "OK", "lat": 48.5324459, "lon": 8.0763429, "formatted_address": "Hauptstraße 83, 77704 Oberkirch, Germany", "place_id": "ChIJtX_AvBbWlkcRd0XCZGIEVIY", "location_type": "ROOFTOP", "error": null, "requested_at": "2026-03-01T11:10:32.448881+00:00"}
{"query_text": "Bahnhofstr. 10, Oberkirch, 77704", "status": "OK", "lat": 48.5298696, "lon": 8.0782702, "formatted_address": "Bahnhofstraße 10, 77704 Oberkirch, Germany", "place_id": "ChIJLfbO4BDWlkcR64XkmZCHVq8", "location_type": "ROOFTOP", "error": null, "requested_at": "2026-03-01T11:10:32.777197+00:00"}
{"query_text": "Renchener Str. 1, Oberkirch, 77704", "status": "OK", "lat": 48.5322697, "lon": 8.0780227, "formatted_address": "Renchener Str. 1, 77704 Oberkirch, Germany", "place_id": "ChIJ9-Nd2xbWlkcRZJxb_4NS72I", "location_type": "ROOFTOP", "error": null, "requested_at": "2026-03-01T11:10:33.103368+00:00"}
{"query_text": "Hauptstr. 37, Oberkirch, 77704", "status": "OK", "lat": 48.53049, "lon": 8.07953, "formatted_address": "Hauptstraße 37, 77704 Oberkirch, Germany", "place_id": "ChIJNYMyxhDWlkcRyqXpXfJarVE", "location_type": "ROOFTOP", "error": null, "requested_at": "2026-03-01T11:10:33.427638+00:00"}
{"query_text": "Am Marktplatz 8, Oberkirch, 77704", "status": "OK", "lat": 48.5292251, "lon": 8.0794921, "formatted_address": "Am Marktpl. 8, 77704 Oberkirch, Germany", "place_id": "ChIJ3eudjRDWlkcRZ_RyMzoJ3Pw", "location_type": "ROOFTOP", "error": null, "requested_at": "2026-03-01T11:10:33.725669+00:00"}
{"query_text": "Am Brurain 12, Karlsruhe, 76187", "status": "OK", "lat": 49.0367713, "lon": 8.3409839, "formatted_address": "Am Brurain 12, 76187 Karlsruhe, Germany", "place_id": "ChIJAWNww8wAl0cRUfem9Tu_ujI", "location_type": "ROOFTOP", "error": null, "requested_at": "2026-03-01T11:10:34.062665+00:00"}
{"query_text": "Lederstr. 35, Calw, 75365", "status": "OK", "lat": 48.7161212, "lon": 8.7379157, "formatted_address": "Lederstraße 35, 75365 Calw, Germany", "place_id": "ChIJH3Yvnxtol0cRpy2mMxitme0", "location_type": "ROOFTOP", "error": null, "requested_at": "2026-03-01T11:10:34.387726+00:00"}
{"query_text": "Wilhelm-Raabe-Str. 1, Pforzheim, 75180", "status": "OK", "lat": 48.8768738, "lon": 8.676573399999999, "formatted_address": "Wilhelm-Raabe-Straße 1, 75180 Pforzheim, Germany", "place_id": "ChIJhzREqwpyl0cRO5SRvjv0cIw", "location_type": "ROOFTOP", "error": null, "requested_at": "2026-03-01T11:10:34.681383+00:00"}
{"query_text": "Schwetzinger Str. 24, Plankstadt, 68723", "status": "OK", "lat": 49.3927106, "lon": 8.595046199999999, "formatted_address": "Schwetzinger Str. 24, 68723 Plankstadt, Germany", "place_id": "ChIJH9r_caLHl0cResQl55yIJnA", "location_type": "ROOFTOP", "error": null, "requested_at": "2026-03-01T11:10:35.023958+00:00"}
{"query_text": "Rottenburger Str. 3/1, Bodelshausen, 72411", "status": "OK", "lat": 48.3969166, "lon": 8.9721484, "formatted_address": "Rottenburger Str. 3, 72411 Bodelshausen, Germany", "place_id": "ChIJMZm2g8X4mUcRNiktSzZXo4k", "location_type": "ROOFTOP", "error": null, "requested_at": "2026-03-01T11:10:35.354630+00:00"}
{"query_text": "Schwetzinger Str. 21, Plankstadt, 68723", "status": "OK", "lat": 49.39215970000001, "lon": 8.5954888, "formatted_address": "Schwetzinger Str. 21, 68723 Plankstadt, Germany", "place_id": "ChIJjyT4CqLHl0cRGKdbdxN0hUs", "location_type": "ROOFTOP", "error": null, "requested_at": "2026-03-01T11:10:35.650829+00:00"}
{"query_text": "Hutschenweihergäßle 11, Bodelshausen, 72411", "status": "OK", "lat": 48.3946996, "lon": 8.9721761, "formatted_address": "Hutschenweihergäßle 11, 72411 Bodelshausen, Germany", "place_id": "ChIJc_pr3MX4mUcRTf4vXAAtj6Q", "location_type": "ROOFTOP", "error": null, "requested_at": "2026-03-01T11:10:35.983107+00:00"}
{"query_text": "Am Burghof 23, Bodelshausen, 72411", "status": "OK", "lat": 48.3961451, "lon": 8.9716866, "formatted_address": "Am Burghof 23, 72411 Bodelshausen, Germany", "place_id": "ChIJBd5nkMX4mUcR_37MKehOS-g", "location_type": "ROOFTOP", "error": null, "requested_at": "2026-03-01T11:10:36.280669+00:00"}
{"query_text": "Bregstr. 36/1, Furtwangen im Schwarzwald, 78120", "status": "OK", "lat": 48.0474791, "lon": 8.1981478, "formatted_address": "Bregstraße 36/1, 78120 Furtwangen im Schwarzwald, Germany", "place_id": "ChIJw8kAvuDokEcRHCfmQf4PMe8", "location_type": "ROOFTOP", "error": null, "requested_at": "2026-03-01T11:10:36.612506+00:00"}
{"query_text": "Rennwiese 1, Achern, 77855", "status": "OK", "lat": 48.6241655, "lon": 8.075172, "formatted_address": "Rennwiese 1, 77855 Achern, Germany", "place_id": "ChIJVWdcSEzYlkcRkMpgH8LeHbk", "location_type": "ROOFTOP", "error": null, "requested_at": "2026-03-01T11:10:36.905088+00:00"}
{"query_text": "Spitalstr. 2, Weingarten (Baden), 76356", "status": "OK", "lat": 49.05594929999999, "lon": 8.5217989, "formatted_address": "Spitalstraße 2, 76356 Weingarten (Baden), Germany", "place_id": "ChIJGZYKtWanl0cR1gN0nlUPTmo", "location_type": "ROOFTOP", "error": null, "requested_at": "2026-03-01T11:10:37.239522+00:00"}
{"query_text": "Kanalstr. 39, Weingarten (Baden), 76356", "status": "OK", "lat": 49.0508519, "lon": 8.524365, "formatted_address": "Kanalstraße 39, 76356 Weingarten (Baden), Germany", "place_id": "ChIJd3JVG2Cnl0cRZJK4gkjFpRo", "location_type": "ROOFTOP", "error": null, "requested_at": "2026-03-01T11:10:37.539621+00:00"}
{"query_text": "Bahnhofstr. 42, Weingarten (Baden), 76356", "status": "OK", "lat": 49.0531673, "lon": 8.5284193, "formatted_address": "Bahnhofstraße 42, 76356 Weingarten (Baden), Germany", "place_id": "ChIJlSyjUV6nl0cRpnqSn_S7ZKY", "location_type": "ROOFTOP", "error": null, "requested_at": "2026-03-01T11:10:37.836804+00:00"}
{"query_text": "Königsberger Str. 14, Weingarten (Baden), 76356", "status": "OK", "lat": 49.0461823, "lon": 8.5234579, "formatted_address": "Königsberger Str. 14, 76356 Weingarten (Baden), Germany", "place_id": "ChIJbZ3HHN4Jl0cRfeCslvbT97k", "location_type": "ROOFTOP", "error": null, "requested_at": "2026-03-01T11:10:38.167042+00:00"}
{"query_text": "Alleenstr. 4, Villingen-Schwenningen, 78054", "status": "OK", "lat": 48.06154919999999, "lon": 8.5308301, "formatted_address": "Alleenstraße 4, 78054 Villingen-Schwenningen, Germany", "place_id": "ChIJlyyBMJWXkEcRumuTHC_SZxk", "location_type": "ROOFTOP", "error": null, "requested_at": "2026-03-01T11:10:38.497831+00:00"}
{"query_text": "Rathausstr. 4, Edingen-Neckarhausen, 68535", "status": "OK", "lat": 49.44717139999999, "lon": 8.6125122, "formatted_address": "Rathausstraße 4, 68535 Edingen-Neckarhausen, Germany", "place_id": "ChIJ36s3X3nGl0cRiffiHp70sRc", "location_type": "ROOFTOP", "error": null, "requested_at": "2026-03-01T11:10:38.819169+00:00"}
{"query_text": "Amalienstr. 3, Bruchsal, 76646", "status": "OK", "lat": 49.1249492, "lon": 8.5922419, "formatted_address": "Amalienstraße 3, 76646 Bruchsal, Germany", "place_id": "ChIJq5iKzVihl0cR4rdgVpoBLag", "location_type": "ROOFTOP", "error": null, "requested_at": "2026-03-01T11:10:39.121490+00:00"}
{"query_text": "Heidolfstr. 9, 11, Bruchsal, 76646", "status": "OK", "lat": 49.0984026, "lon": 8.645765299999999, "formatted_address": "Heidolfstraße 9/11, 76646 Bruchsal, Germany", "place_id": "EixIZWlkb2xmc3RyYcOfZSA5LzExLCA3NjY0NiBCcnVjaHNhbCwgR2VybWFueSIeGhwKFgoUChIJ90VdIcGhl0cRddRSa_SlIQASAjEx", "location_type": "ROOFTOP", "error": null, "requested_at": "2026-03-01T11:10:39.440186+00:00"}
{"query_text": "Hermann-Hesse-Straße 34, Mühlacker, 75417", "status": "OK", "lat": 48.9504725, "lon": 8.8598093, "formatted_address": "Hermann-Hesse-Straße 34, 75417 Mühlacker, Germany", "place_id": "ChIJfUXJl455l0cRZ9bh0su5tww", "location_type": "GEOMETRIC_CENTER", "error": null, "requested_at": "2026-03-01T11:10:39.738390+00:00"}
{"query_text": "Kirchstr. 22, Wildberg, 72218", "status": "OK", "lat": 48.6181066, "lon": 8.777353699999999, "formatted_address": "Kirchstraße 22, 72218 Wildberg, Germany", "place_id": "ChIJOaEN_IJbl0cR5CuufSWaanM", "location_type": "ROOFTOP", "error": null, "requested_at": "2026-03-01T11:10:40.085039+00:00"}
{"query_text": "Luisenstr. 10, Bruchsal, 76646", "status": "OK", "lat": 49.1248641, "lon": 8.592640399999999, "formatted_address": "Luisenstraße 10, 76646 Bruchsal, Germany", "place_id": "ChIJrRVGLV-hl0cR86jEpTg0KNM", "location_type": "ROOFTOP", "error": null, "requested_at": "2026-03-01T11:10:40.380479+00:00"}
{"query_text": "Bahnhofsanlage 7, Ketsch, 68775", "status": "OK", "lat": 49.3687955, "lon": 8.5311538, "formatted_address": "Bahnhofsanlage 7, 68775 Ketsch, Germany", "place_id": "ChIJpdJ91uS3l0cRcl-AR0qiIxI", "location_type": "ROOFTOP", "error": null, "requested_at": "2026-03-01T11:10:40.710737+00:00"}
{"query_text": "Rathausstr. 4, Leibertingen, 88637", "status": "OK", "lat": 48.0431355, "lon": 9.014833, "formatted_address": "Rathaus, Rathausstraße 4, 88637 Leibertingen, Germany", "place_id": "ChIJRSpWhcxsmkcRsJrtNQPTBDE", "location_type": "ROOFTOP", "error": null, "requested_at": "2026-03-01T11:10:41.036295+00:00"}
{"query_text": "Austr. 30, Brackenheim, 74336", "status": "OK", "lat": 49.0736109, "lon": 9.0692024, "formatted_address": "Austraße 30, 74336 Brackenheim, Germany", "place_id": "ChIJ9eYjH6GAl0cRzxQwc_4-LXI", "location_type": "ROOFTOP", "error": null, "requested_at": "2026-03-01T11:10:41.337704+00:00"}
{"query_text": "In der Stelle 3, Gomaringen, 72810", "status": "OK", "lat": 48.4536825, "lon": 9.1000511, "formatted_address": "In d. Stelle 3, 72810 Gomaringen, Germany", "place_id": "ChIJxcyuILnwmUcRFhMVc7FsVyM", "location_type": "ROOFTOP", "error": null, "requested_at": "2026-03-01T11:10:41.674420+00:00"}
{"query_text": "Eichendorffstr. 2, Gomaringen, 72810", "status": "OK", "lat": 48.461302, "lon": 9.0945796, "formatted_address": "Eichendorffstraße 2, 72810 Gomaringen, Germany", "place_id": "ChIJEXCf6pfwmUcRZHtRbU_-lEw", "location_type": "ROOFTOP", "error": null, "requested_at": "2026-03-01T11:10:41.970015+00:00"}
{"query_text": "Gustav-Schöller-Str. 39, Mössingen, 72116", "status": "OK", "lat": 48.4138041, "lon": 9.1195764, "formatted_address": "Gustav - Schöller - Str. 39, 72116 Mössingen, Germany", "place_id": "ChIJbfckcuH2mUcRn5BBV3_W3Z8", "location_type": "ROOFTOP", "error": null, "requested_at": "2026-03-01T11:10:42.298665+00:00"}
{"query_text": "Burghaldenstr. 6, Gammertingen, 72501", "status": "OK", "lat": 48.2735377, "lon": 9.2101665, "formatted_address": "Burghaldenstraße 6, 72501 Gammertingen, Germany", "place_id": "ChIJu24ac1IfmkcRmcANJXqvqBw", "location_type": "ROOFTOP", "error": null, "requested_at": "2026-03-01T11:10:42.597191+00:00"}
{"query_text": "Lindenstr. 66, Gomaringen, 72810", "status": "OK", "lat": 48.4548388, "lon": 9.0984714, "formatted_address": "Lindenstraße 66, 72810 Gomaringen, Germany", "place_id": "ChIJFSuhtL7wmUcRJXQ2ImTGu_k", "location_type": "ROOFTOP", "error": null, "requested_at": "2026-03-01T11:10:42.897825+00:00"}
{"query_text": "Wasenstr. 4, Albstadt, 72461", "status": "OK", "lat": 48.2552595, "lon": 9.016572, "formatted_address": "Wasenstraße 4, 72461 Albstadt, Germany", "place_id": "ChIJPX02nTIbmkcRE8JUDSiFbUc", "location_type": "ROOFTOP", "error": null, "requested_at": "2026-03-01T11:10:43.191824+00:00"}
{"query_text": "Max-Eyth-Str. 10, Gerlingen, 70839", "status": "OK", "lat": 48.8017715, "lon": 9.071750999999999, "formatted_address": "Max-Eyth-Straße 10, 70839 Gerlingen, Germany", "place_id": "ChIJSyBd4HbZmUcR0MPRd13OWlE", "location_type": "ROOFTOP", "error": null, "requested_at": "2026-03-01T11:10:43.481343+00:00"}
{"query_text": "Marktstr. 2, Ditzingen, 71254", "status": "OK", "lat": 48.8268407, "lon": 9.0667145, "formatted_address": "Marktstraße 2, 71254 Ditzingen, Germany", "place_id": "ChIJQyTPiMDZmUcRChkzjJOCc6o", "location_type": "ROOFTOP", "error": null, "requested_at": "2026-03-01T11:10:43.809549+00:00"}
{"query_text": "Dammweg 12, Schönaich, 71101", "status": "OK", "lat": 48.6612273, "lon": 9.0602854, "formatted_address": "Dammweg 12, 71101 Schönaich, Germany", "place_id": "ChIJ5Wa4PTnnmUcREgQs-Fhig3U", "location_type": "ROOFTOP", "error": null, "requested_at": "2026-03-01T11:10:44.146793+00:00"}
{"query_text": "Giebelstr. 13 B, Stuttgart, 70499", "status": "OK", "lat": 48.803821, "lon": 9.091032, "formatted_address": "Giebelstraße 13B, 70499 Stuttgart, Germany", "place_id": "ChIJyZl01CramUcRHkFxCLH5PUQ", "location_type": "ROOFTOP", "error": null, "requested_at": "2026-03-01T11:10:44.477647+00:00"}
{"query_text": "Hauptstr. 5, Schönwald im Schwarzwald, 78141", "status": "OK", "lat": 48.1014412, "lon": 8.201099, "formatted_address": "Hauptstraße 5, 78141 Schönwald im Schwarzwald, Germany", "place_id": "ChIJwS8WoSbokEcRxCYHOzsGAGA", "location_type": "ROOFTOP", "error": null, "requested_at": "2026-03-01T11:10:44.809444+00:00"}
{"query_text": "Wilsinger Str. 41, Trochtelfingen, 72818", "status": "OK", "lat": 48.3049094, "lon": 9.2800478, "formatted_address": "Wilsinger Str. 41, 72818 Trochtelfingen, Germany", "place_id": "ChIJ10rR11QgmkcRu6kaefPHJ4Y", "location_type": "ROOFTOP", "error": null, "requested_at": "2026-03-01T11:10:45.101244+00:00"}
{"query_text": "Stadtgraben 16, Güglingen, 74363", "status": "OK", "lat": 49.0670996, "lon": 9.0014136, "formatted_address": "Stadtgraben 16, 74363 Güglingen, Germany", "place_id": "ChIJZ6T0oxGBl0cRjjJsiVnee4U", "location_type": "ROOFTOP", "error": null, "requested_at": "2026-03-01T11:10:45.396640+00:00"}
{"query_text": "Valentinstr. 3, Karlsruhe, 76189", "status": "OK", "lat": 49.0041429, "lon": 8.3320071, "formatted_address": "Valentinstraße 3, 76189 Karlsruhe, Germany", "place_id": "ChIJ23AjUTUBl0cRrtmrwhmQ72w", "location_type": "ROOFTOP", "error": null, "requested_at": "2026-03-01T11:10:45.717524+00:00"}
{"query_text": "Mühlbachstr. 10, Billigheim, 74842", "status": "OK", "lat": 49.348025, "lon": 9.257944799999999, "formatted_address": "Mühlbachstraße 10, 74842 Billigheim, Germany", "place_id": "ChIJZxBoCzEfmEcRuBt1fVNTqUg", "location_type": "ROOFTOP", "error": null, "requested_at": "2026-03-01T11:10:46.015869+00:00"}
{"query_text": "Leonberger Str. 29/1, Ditzingen, 71254", "status": "OK", "lat": 48.82495, "lon": 9.064882299999999, "formatted_address": "Leonberger Str. 29/1, 71254 Ditzingen, Germany", "place_id": "ChIJjfvcP7_ZmUcRA7V9B3MeScw", "location_type": "ROOFTOP", "error": null, "requested_at": "2026-03-01T11:10:46.349924+00:00"}
{"query_text": "Heuchelbergstr. 22, Kirchheim am Neckar, 74366", "status": "OK", "lat": 49.0409624, "lon": 9.136061999999999, "formatted_address": "Heuchelbergstraße 22, 74366 Kirchheim am Neckar, Germany", "place_id": "ChIJGe0bpgsrmEcRCSwzJsNyUxg", "location_type": "ROOFTOP", "error": null, "requested_at": "2026-03-01T11:10:46.679120+00:00"}
{"query_text": "Kronenstr. 3, Korntal-Münchingen, 70825", "status": "OK", "lat": 48.853357, "lon": 9.0930631, "formatted_address": "Kronenstraße 3, 70825 Korntal-Münchingen, Germany", "place_id": "ChIJx0jyFFDXmUcRGyL3OQxY29o", "location_type": "ROOFTOP", "error": null, "requested_at": "2026-03-01T11:10:46.975882+00:00"}
{"query_text": "Bildstr. 6, Ditzingen, 71254", "status": "OK", "lat": 48.8250898, "lon": 9.068872899999999, "formatted_address": "Bildstraße 6, 71254 Ditzingen, Germany", "place_id": "ChIJDWc477_ZmUcRMoP5qNfJwCg", "location_type": "ROOFTOP", "error": null, "requested_at": "2026-03-01T11:10:47.309544+00:00"}
{"query_text": "Hauptstr. 51, Münsingen, 72525", "status": "OK", "lat": 48.4116775, "lon": 9.4974118, "formatted_address": "Hauptstraße 51, 72525 Münsingen, Germany", "place_id": "ChIJI6UxA96FmUcRZxPjXxDuE-g", "location_type": "ROOFTOP", "error": null, "requested_at": "2026-03-01T11:10:47.620727+00:00"}
{"query_text": "Hauptstr. 25, Bönnigheim, 74357", "status": "OK", "lat": 49.0412188, "lon": 9.093158299999999, "formatted_address": "Hauptstraße 25, 74357 Bönnigheim, Germany", "place_id": "ChIJozkK6vMqmEcRrw1CeYXgqM8", "location_type": "ROOFTOP", "error": null, "requested_at": "2026-03-01T11:10:47.950476+00:00"}
{"query_text": "Hirschbergstr. 22, Villingen-Schwenningen, 78054", "status": "OK", "lat": 48.0593261, "lon": 8.5265871, "formatted_address": "Hirschbergstraße 22, 78054 Villingen-Schwenningen, Germany", "place_id": "ChIJmX9MOL6XkEcRVqskTArttzE", "location_type": "ROOFTOP", "error": null, "requested_at": "2026-03-01T11:10:48.252838+00:00"}
{"query_text": "Bühlstr. 1, Bad Boll, 73087", "status": "OK", "lat": 48.64154800000001, "lon": 9.6156062, "formatted_address": "Bühlstraße 1, 73087 Bad Boll, Germany", "place_id": "ChIJGzVDo3eimUcRGsxFkkrvpJE", "location_type": "ROOFTOP", "error": null, "requested_at": "2026-03-01T11:10:48.569819+00:00"}
{"query_text": "Frankstr. 107, Pforzheim, 75172", "status": "OK", "lat": 48.8918081, "lon": 8.674693500000002, "formatted_address": "Frankstraße 107, 75172 Pforzheim, Germany", "place_id": "ChIJX9t8qm5yl0cRjffyiBoYq4U", "location_type": "ROOFTOP", "error": null, "requested_at": "2026-03-01T11:10:48.897973+00:00"}
{"query_text": "Martin-Niemöller-Straße 2 a, Pforzheim, 75179", "status": "OK", "lat": 48.8922527, "lon": 8.6725206, "formatted_address": "Martin-Niemöller-Straße 2a, 75179 Pforzheim, Germany", "place_id": "ChIJq6qaMmlyl0cRm2qbUfMIdgE", "location_type": "ROOFTOP", "error": null, "requested_at": "2026-03-01T11:10:49.191999+00:00"}
{"query_text": "Erlengarten 3, Bad Boll, 73087", "status": "OK", "lat": 48.6421803, "lon": 9.6129642, "formatted_address": "Erlengarten 3, 73087 Bad Boll, Germany", "place_id": "ChIJJed1MniimUcRNrjf8pr41W8", "location_type": "ROOFTOP", "error": null, "requested_at": "2026-03-01T11:10:49.539131+00:00"}
{"query_text": "Hintere Mühlstr. 2, Göppingen, 73035", "status": "OK", "lat": 48.7085028, "lon": 9.616470699999999, "formatted_address": "Hintere Mühlstraße 2, 73035 Göppingen, Germany", "place_id": "ChIJndDYz3CjmUcRU4HZ4zPBxP8", "location_type": "ROOFTOP", "error": null, "requested_at": "2026-03-01T11:10:49.875819+00:00"}
{"query_text": "Hauptstraße 25, Uttenweiler, 88524", "status": "OK", "lat": 48.1473887, "lon": 9.6134007, "formatted_address": "Hauptstraße 25, 88524 Uttenweiler, Germany", "place_id": "ChIJuww-wWfNm0cRBqf7EAlJhao", "location_type": "ROOFTOP", "error": null, "requested_at": "2026-03-01T11:10:50.177249+00:00"}
{"query_text": "Erlengarten 1, Bad Boll, 73087", "status": "OK", "lat": 48.6424025, "lon": 9.6132372, "formatted_address": "Erlengarten 1, 73087 Bad Boll, Germany", "place_id": "ChIJnzFqLXiimUcRdl3DzIrDtFE", "location_type": "ROOFTOP", "error": null, "requested_at": "2026-03-01T11:10:50.483622+00:00"}
{"query_text": "Goethestr. 56, Albstadt, 72461", "status": "OK", "lat": 48.2503114, "lon": 9.01834, "formatted_address": "Goethestraße 56, 72461 Albstadt, Germany", "place_id": "ChIJF7OHBiwbmkcRX_LGL6XTLAk", "location_type": "ROOFTOP", "error": null, "requested_at": "2026-03-01T11:10:50.776132+00:00"}
{"query_text": "Einkornstr. 36, Schwäbisch Hall, 74523", "status": "OK", "lat": 49.1023682, "lon": 9.773487099999999, "formatted_address": "Einkornstraße 36, 74523 Schwäbisch Hall, Germany", "place_id": "ChIJU38NPZBQmEcR-NOBYHOpcUM", "location_type": "ROOFTOP", "error": null, "requested_at": "2026-03-01T11:10:51.101651+00:00"}
{"query_text": "Siederstr. 25, Villingen-Schwenningen, 78054", "status": "OK", "lat": 48.054951, "lon": 8.5259321, "formatted_address": "Siederstraße 25, 78054 Villingen-Schwenningen, Germany", "place_id": "ChIJTyH1d72XkEcRTWvYrdxWV8w", "location_type": "ROOFTOP", "error": null, "requested_at": "2026-03-01T11:10:51.394012+00:00"}
{"query_text": "Schillerstr. 8, Römerstein, 72587", "status": "OK", "lat": 48.4820989, "lon": 9.544047899999999, "formatted_address": "Schillerstraße 8, 72587 Römerstein, Germany", "place_id": "ChIJ6yi1-iqFmUcRh4StiU5dxpQ", "location_type": "ROOFTOP", "error": null, "requested_at": "2026-03-01T11:10:51.685320+00:00"}
{"query_text": "Neubauer Weg 5, Stuttgart, 70569", "status": "OK", "lat": 48.75033149999999, "lon": 9.0845294, "formatted_address": "Neubauerweg 5, 70569 Stuttgart, Germany", "place_id": "ChIJNYSpnhDcmUcRXf8ucpcSgAA", "location_type": "ROOFTOP", "error": null, "requested_at": "2026-03-01T11:10:51.977136+00:00"}
{"query_text": "Mittenfeldstr. 4, Stuttgart, 70499", "status": "OK", "lat": 48.8049388, "lon": 9.086160399999999, "formatted_address": "Mittenfeldstraße 4, 70499 Stuttgart, Germany", "place_id": "ChIJIyYELoDZmUcROxkeXJ2PC60", "location_type": "ROOFTOP", "error": null, "requested_at": "2026-03-01T11:10:52.273414+00:00"}
{"query_text": "Stiftstr. 10, Göppingen, 73035", "status": "OK", "lat": 48.7069579, "lon": 9.616425, "formatted_address": "Stiftstraße 10, 73035 Göppingen, Germany", "place_id": "ChIJyxdxM3GjmUcRB06jZnlatQU", "location_type": "ROOFTOP", "error": null, "requested_at": "2026-03-01T11:10:52.567818+00:00"}
{"query_text": "Hauptstr. 95, Bad Boll, 73087", "status": "OK", "lat": 48.64003200000001, "lon": 9.616765299999999, "formatted_address": "Hauptstraße 95, 73087 Bad Boll, Germany", "place_id": "ChIJFeJ4LnaimUcRM4EGX9QqVOk", "location_type": "ROOFTOP", "error": null, "requested_at": "2026-03-01T11:10:52.896328+00:00"}
{"query_text": "Auf dem Hof 5, Mengen, 88512", "status": "OK", "lat": 48.0485464, "lon": 9.326725099999999, "formatted_address": "Auf dem Hof 5, 88512 Mengen, Germany", "place_id": "ChIJr3Rhajg4mkcRSLIunbJaPrg", "location_type": "ROOFTOP", "error": null, "requested_at": "2026-03-01T11:10:53.226140+00:00"}
{"query_text": "Hechinger Str. 4, Albstadt, 72461", "status": "OK", "lat": 48.25480779999999, "lon": 9.0179571, "formatted_address": "Hechinger Str. 4, 72461 Albstadt, Germany", "place_id": "ChIJP_EPhi0bmkcRSzeqPchgaGU", "location_type": "ROOFTOP", "error": null, "requested_at": "2026-03-01T11:10:53.554576+00:00"}
{"query_text": "Kirchstr. 6, Westerstetten, 89198", "status": "OK", "lat": 48.5189713, "lon": 9.9543062, "formatted_address": "Kirchstraße 6, 89198 Westerstetten, Germany", "place_id": "ChIJ1R8IMG5umUcRcguv_6t8gBI", "location_type": "ROOFTOP", "error": null, "requested_at": "2026-03-01T11:10:53.905575+00:00"}
{"query_text": "Jöhlinger Str. 102, Walzbachtal, 75045", "status": "OK", "lat": 49.0323774, "lon": 8.5751899, "formatted_address": "Jöhlinger Str. 102, 75045 Walzbachtal, Germany", "place_id": "ChIJhe8cbGwKl0cRexIQZvr_xAs", "location_type": "ROOFTOP", "error": null, "requested_at": "2026-03-01T11:10:54.198019+00:00"}
{"query_text": "Hintere Gasse 8, Schwäbisch Gmünd, 73529", "status": "OK", "lat": 48.7883794, "lon": 9.887869499999999, "formatted_address": "Hintere G. 8, 73529 Schwäbisch Gmünd, Germany", "place_id": "ChIJA1ydKxgGmUcRzLBZPkQ9HWw", "location_type": "ROOFTOP", "error": null, "requested_at": "2026-03-01T11:10:54.526023+00:00"}
{"query_text": "Gehrweg 12, Untergruppenbach, 74199", "status": "OK", "lat": 49.084867, "lon": 9.3190812, "formatted_address": "Gehrweg 12, 74199 Untergruppenbach, Germany", "place_id": "ChIJbaKZKJExmEcRECqbvyM57MM", "location_type": "ROOFTOP", "error": null, "requested_at": "2026-03-01T11:10:54.821740+00:00"}
{"query_text": "Am alten Güterbahnhof 24, Bruchsal, 76646", "status": "OK", "lat": 49.1227475, "lon": 8.5863605, "formatted_address": "Am Alten Güterbahnhof 24, 76646 Bruchsal, Germany", "place_id": "ChIJxVYtuMChl0cRctQ-lFDLsQc", "location_type": "ROOFTOP", "error": null, "requested_at": "2026-03-01T11:10:55.150364+00:00"}
{"query_text": "Grauwiesenweg 2, Schwäbisch Hall, 74523", "status": "OK", "lat": 49.1066211, "lon": 9.773265300000002, "formatted_address": "Grauwiesenweg 2, 74523 Schwäbisch Hall, Germany", "place_id": "ChIJQa4014RQmEcRMrvc1XcDPp8", "location_type": "ROOFTOP", "error": null, "requested_at": "2026-03-01T11:10:55.438841+00:00"}
{"query_text": "Biberacherstr. 102, Mittelbiberach, 88441", "status": "OK", "lat": 48.08797130000001, "lon": 9.752082399999999, "formatted_address": "Biberacher Str. 102, 88441 Mittelbiberach, Germany", "place_id": "ChIJgaMfF2nPm0cRQCnje0hmVIo", "location_type": "ROOFTOP", "error": null, "requested_at": "2026-03-01T11:10:55.765120+00:00"}
{"query_text": "Biberacher Str. 102, Mittelbiberach, 88441", "status": "OK", "lat": 48.08797130000001, "lon": 9.752082399999999, "formatted_address": "Biberacher Str. 102, 88441 Mittelbiberach, Germany", "place_id": "ChIJgaMfF2nPm0cRQCnje0hmVIo", "location_type": "ROOFTOP", "error": null, "requested_at": "2026-03-01T11:10:56.096031+00:00"}
{"query_text": "Ernst-Reuter-Platz 4, Stuttgart, 70499", "status": "OK", "lat": 48.8031074, "lon": 9.0917735, "formatted_address": "Ernst-Reuter-Platz, 70499 Stuttgart, Germany", "place_id": "ChIJ3bSM2NTbmUcREjk170sPHCY", "location_type": "APPROXIMATE", "error": null, "requested_at": "2026-03-01T11:10:56.408895+00:00"}
{"query_text": "Siebenmorgenweg 73, Heilbronn, 74081", "status": "OK", "lat": 49.12369899999999, "lon": 9.150031799999999, "formatted_address": "Siebenmorgenweg 73, 74081 Heilbronn, Germany", "place_id": "ChIJB8SXYwIpmEcRdwjXQiLp2e8", "location_type": "ROOFTOP", "error": null, "requested_at": "2026-03-01T11:10:56.715851+00:00"}
{"query_text": "Bahnhofsplatz 4, Burgstetten, 71576", "status": "OK", "lat": 48.9492437, "lon": 9.1370952, "formatted_address": "Bahnhofspl. 4, 74321 Bietigheim-Bissingen, Germany", "place_id": "ChIJs5FYxonTmUcRFKuv-3vC9iU", "location_type": "ROOFTOP", "error": null, "requested_at": "2026-03-01T11:10:57.039467+00:00"}
{"query_text": "Überkinger Str. 14, Geislingen an der Steige, 73312", "status": "OK", "lat": 48.6239782, "lon": 9.8256386, "formatted_address": "Überkinger Str. 14, 73312 Geislingen an der Steige, Germany", "place_id": "ChIJ0-tXczULmUcRkFqGIL4GILw", "location_type": "ROOFTOP", "error": null, "requested_at": "2026-03-01T11:10:57.363877+00:00"}
{"query_text": "Marie-Curie-Str. 6, Biberach an der Riß, 88400", "status": "OK", "lat": 48.1119095, "lon": 9.7783191, "formatted_address": "Marie-Curie-Straße 6, 88400 Biberach an der Riß, Germany", "place_id": "ChIJkRBrTn3Fm0cRNSQTWLVW7G4", "location_type": "ROOFTOP", "error": null, "requested_at": "2026-03-01T11:10:57.692994+00:00"}
{"query_text": "Hauptstr. 41, Achstetten, 88480", "status": "OK", "lat": 48.2618478, "lon": 9.8953799, "formatted_address": "Hauptstraße 41, 88480 Achstetten, Germany", "place_id": "ChIJiZooauXYm0cRmp7n_kazG3g", "location_type": "ROOFTOP", "error": null, "requested_at": "2026-03-01T11:10:58.062255+00:00"}
{"query_text": "Hauptstr. 5, Königheim, 97953", "status": "OK", "lat": 49.6181233, "lon": 9.592431999999999, "formatted_address": "Hauptstraße 5, 97953 Königheim, Germany", "place_id": "ChIJ1f4tGQsKmEcRTVk9pgOFEz0", "location_type": "ROOFTOP", "error": null, "requested_at": "2026-03-01T11:10:58.401158+00:00"}
{"query_text": "Bahnhofstr. 27, Geislingen an der Steige, 73312", "status": "OK", "lat": 48.6183759, "lon": 9.8412001, "formatted_address": "Bahnhofstraße 27, 73312 Geislingen an der Steige, Germany", "place_id": "ChIJ61YAA610mUcRVZZoQqZ5Xw8", "location_type": "ROOFTOP", "error": null, "requested_at": "2026-03-01T11:10:58.692719+00:00"}
{"query_text": "Überkinger Str. 21, Geislingen an der Steige, 73312", "status": "OK", "lat": 48.6232067, "lon": 9.824971999999999, "formatted_address": "Überkinger Str. 21, 73312 Geislingen an der Steige, Germany", "place_id": "ChIJO7vQFTULmUcRraY-9iknkcg", "location_type": "ROOFTOP", "error": null, "requested_at": "2026-03-01T11:10:58.989287+00:00"}
{"query_text": "Holzgerlinger Str. 3, Schönaich, 71101", "status": "OK", "lat": 48.6562576, "lon": 9.0583969, "formatted_address": "Holzgerlinger Str. 3, 71101 Schönaich, Germany", "place_id": "ChIJQYA9FDvnmUcRyzgYdYwoamE", "location_type": "ROOFTOP", "error": null, "requested_at": "2026-03-01T11:10:59.327201+00:00"}
{"query_text": "Am Berg 11, Heroldstatt, 72535", "status": "OK", "lat": 48.44239, "lon": 9.66079, "formatted_address": "Am Berg 11, 72535 Heroldstatt, Germany", "place_id": "ChIJyTBJyfKCmUcR2aEqko8Y_kc", "location_type": "ROOFTOP", "error": null, "requested_at": "2026-03-01T11:10:59.650345+00:00"}
{"query_text": "Ensostr. 31/1, Ulm, 89079", "status": "OK", "lat": 48.35284859999999, "lon": 9.906036499999999, "formatted_address": "Ensostraße 31-1, 89079 Ulm, Germany", "place_id": "ChIJlScqVHNjmUcRDYHtT457c-A", "location_type": "ROOFTOP", "error": null, "requested_at": "2026-03-01T11:10:59.940117+00:00"}
{"query_text": "Rittergasse 5, Wertheim, 97877", "status": "OK", "lat": 49.7581926, "lon": 9.516874, "formatted_address": "Rittergasse 5, 97877 Wertheim, Germany", "place_id": "ChIJgZ74mnulokcRqrDNbAG3Mqw", "location_type": "ROOFTOP", "error": null, "requested_at": "2026-03-01T11:11:00.293833+00:00"}
{"query_text": "Schloßstr. 22, Brackenheim, 74336", "status": "OK", "lat": 49.0778039, "lon": 9.063943, "formatted_address": "Schloßstraße 22, 74336 Brackenheim, Germany", "place_id": "ChIJl6VB_qSAl0cRQWjPa6VLYAg", "location_type": "ROOFTOP", "error": null, "requested_at": "2026-03-01T11:11:00.619956+00:00"}
{"query_text": "Schubartstr. 20, Geislingen an der Steige, 73312", "status": "OK", "lat": 48.6139046, "lon": 9.841963699999999, "formatted_address": "Schubartstraße 20, 73312 Geislingen an der Steige, Germany", "place_id": "ChIJrRAkx650mUcR-psgTl1d8wM", "location_type": "ROOFTOP", "error": null, "requested_at": "2026-03-01T11:11:00.946626+00:00"}
{"query_text": "Neckarstr. 11, Eberbach, 69412", "status": "OK", "lat": 49.46158519999999, "lon": 8.987832, "formatted_address": "Neckarstraße 11, 69412 Eberbach, Germany", "place_id": "ChIJa98EYSrul0cRDrY3IeaI0o0", "location_type": "ROOFTOP", "error": null, "requested_at": "2026-03-01T11:11:01.281877+00:00"}
{"query_text": "Bahnhofstr. 5, Biberach, 77781", "status": "OK", "lat": 48.33892700000001, "lon": 8.0287732, "formatted_address": "Bahnhofstraße 5, 77781 Biberach, Germany", "place_id": "ChIJr14HiecpkUcRcPIlYq6FjDA", "location_type": "ROOFTOP", "error": null, "requested_at": "2026-03-01T11:11:01.603744+00:00"}
{"query_text": "Hauptstr. 129, Lobbach, 74931", "status": "OK", "lat": 49.372965, "lon": 8.8977288, "formatted_address": "Hauptstraße 129, 74931 Lobbach, Germany", "place_id": "ChIJ3zJiaubsl0cR1nKP4j5jYP0", "location_type": "ROOFTOP", "error": null, "requested_at": "2026-03-01T11:11:01.897725+00:00"}
{"query_text": "Amselweg 4, Edingen-Neckarhausen, 68535", "status": "OK", "lat": 49.4458255, "lon": 8.6037685, "formatted_address": "Amselweg 4, 68535 Edingen-Neckarhausen, Germany", "place_id": "ChIJEXrM4nDGl0cRo5RX31LBAAw", "location_type": "ROOFTOP", "error": null, "requested_at": "2026-03-01T11:11:02.188679+00:00"}
{"query_text": "Rietenstr. 52, Villingen-Schwenningen, 78054", "status": "OK", "lat": 48.0550354, "lon": 8.5206751, "formatted_address": "Rietenstraße 52, 78054 Villingen-Schwenningen, Germany", "place_id": "ChIJUdpOgryXkEcRaGjXq7fTbgA", "location_type": "ROOFTOP", "error": null, "requested_at": "2026-03-01T11:11:02.518325+00:00"}
{"query_text": "Starzacher Str. 48, Rottenburg am Neckar, 72108", "status": "OK", "lat": 48.4494364, "lon": 8.8527946, "formatted_address": "Starzacher Str. 48, 72108 Rottenburg am Neckar, Germany", "place_id": "ChIJ1SOgJOZVl0cRyWsKm51b2D8", "location_type": "ROOFTOP", "error": null, "requested_at": "2026-03-01T11:11:02.838960+00:00"}
{"query_text": "Goethestr. 6, Knittlingen, 75438", "status": "OK", "lat": 49.0191891, "lon": 8.7653804, "formatted_address": "Goethestraße 6, 75438 Knittlingen, Germany", "place_id": "ChIJC_zULBF2l0cRV-O4tCeWk7M", "location_type": "ROOFTOP", "error": null, "requested_at": "2026-03-01T11:11:03.166843+00:00"}
{"query_text": "Alter Schulplatz 2, Mühlheim an der Donau, 78570", "status": "OK", "lat": 48.0228062, "lon": 8.8885145, "formatted_address": "Alter Schulpl. 2, 78570 Mühlheim an der Donau, Germany", "place_id": "ChIJFeyR8wJzmkcRV3cDR8nG2-M", "location_type": "ROOFTOP", "error": null, "requested_at": "2026-03-01T11:11:03.462201+00:00"}
{"query_text": "Lemaitrestr. 31, Mannheim, 68309", "status": "OK", "lat": 49.51620459999999, "lon": 8.5130775, "formatted_address": "Lemaitrestraße 31, 68309 Mannheim, Germany", "place_id": "ChIJEUmT9EHOl0cRm2_Uu5dLSIM", "location_type": "ROOFTOP", "error": null, "requested_at": "2026-03-01T11:11:03.758310+00:00"}
{"query_text": "Brettener Str. 2, Knittlingen, 75438", "status": "OK", "lat": 49.0248286, "lon": 8.7606673, "formatted_address": "Brettener Str. 2, 75438 Knittlingen, Germany", "place_id": "ChIJRUZEKwV2l0cRStkXjxvuHkk", "location_type": "ROOFTOP", "error": null, "requested_at": "2026-03-01T11:11:04.119804+00:00"}
{"query_text": "Silcherstr. 17, Spechbach, 74937", "status": "OK", "lat": 49.3447724, "lon": 8.8794407, "formatted_address": "Silcherstraße 17, 74937 Spechbach, Germany", "place_id": "ChIJNROlpzaTl0cRfZtqp3qm2vQ", "location_type": "ROOFTOP", "error": null, "requested_at": "2026-03-01T11:11:04.443991+00:00"}
{"query_text": "Albblickstr. 10, Rangendingen, 72414", "status": "OK", "lat": 48.3993124, "lon": 8.854283400000002, "formatted_address": "Albblickstraße 10, 72414 Rangendingen, Germany", "place_id": "ChIJ0ZmMjmBVl0cR2GZSb2mi1PQ", "location_type": "ROOFTOP", "error": null, "requested_at": "2026-03-01T11:11:04.732505+00:00"}
{"query_text": "Attentalstr. 1, Walzbachtal, 75045", "status": "OK", "lat": 49.0253015, "lon": 8.5735029, "formatted_address": "Attentalstraße 1, 75045 Walzbachtal, Germany", "place_id": "ChIJQ0yh6kEKl0cRzo7AnVwuHKI", "location_type": "ROOFTOP", "error": null, "requested_at": "2026-03-01T11:11:05.021887+00:00"}
{"query_text": "Freudensteiner Str. 1, Knittlingen, 75438", "status": "OK", "lat": 49.0249393, "lon": 8.7609373, "formatted_address": "Freudensteiner Str. 1, 75438 Knittlingen, Germany", "place_id": "ChIJh2Oq1Rp2l0cRfiONhz_HgrQ", "location_type": "ROOFTOP", "error": null, "requested_at": "2026-03-01T11:11:05.309436+00:00"}
{"query_text": "Kennedystr. 1, Knittlingen, 75438", "status": "OK", "lat": 49.0234804, "lon": 8.7614277, "formatted_address": "Kennedystraße 1, 75438 Knittlingen, Germany", "place_id": "ChIJ0VtcuRp2l0cRHbv_s0xYCoo", "location_type": "ROOFTOP", "error": null, "requested_at": "2026-03-01T11:11:05.633614+00:00"}
{"query_text": "Jupiterplatz 1, Ladenburg, 68526", "status": "OK", "lat": 49.46936590000001, "lon": 8.6149529, "formatted_address": "Jupiterpl. 1, 68526 Ladenburg, Germany", "place_id": "ChIJP27uj8jFl0cRzrT-vhpLWJc", "location_type": "ROOFTOP", "error": null, "requested_at": "2026-03-01T11:11:05.986168+00:00"}
{"query_text": "Weinheimer Str. 4, Ladenburg, 68526", "status": "OK", "lat": 49.47323429999999, "lon": 8.614084799999999, "formatted_address": "Weinheimer Str. 4, 68526 Ladenburg, Germany", "place_id": "ChIJ32gBErjFl0cRDfyK2qx9MhM", "location_type": "ROOFTOP", "error": null, "requested_at": "2026-03-01T11:11:06.283175+00:00"}
{"query_text": "Heidolfstr. 9, Bruchsal, 76646", "status": "OK", "lat": 49.0984026, "lon": 8.645765299999999, "formatted_address": "Heidolfstraße 9, 76646 Bruchsal, Germany", "place_id": "ChIJ90VdIcGhl0cRddRSa_SlIQA", "location_type": "ROOFTOP", "error": null, "requested_at": "2026-03-01T11:11:06.611199+00:00"}
{"query_text": "Bahnhofstr. 14, Wolfach, 77709", "status": "OK", "lat": 48.29599169999999, "lon": 8.221002700000001, "formatted_address": "Bahnhofstraße 14, 77709 Wolfach, Germany", "place_id": "ChIJO84xlCjQkEcRycXzJfrE9-E", "location_type": "ROOFTOP", "error": null, "requested_at": "2026-03-01T11:11:06.955308+00:00"}
{"query_text": "Heidenbühlstr. 1, Berkheim, 88450", "status": "OK", "lat": 48.0424083, "lon": 10.0818204, "formatted_address": "Heidenbühlstraße 1, 88450 Berkheim, Germany", "place_id": "ChIJoxkOTKLum0cRdFKiEC8xLbM", "location_type": "ROOFTOP", "error": null, "requested_at": "2026-03-01T11:11:07.282901+00:00"}
{"query_text": "Wiener Str. 1, Aalen, 73430", "status": "OK", "lat": 48.84040479999999, "lon": 10.0920529, "formatted_address": "Wiener Str. 1, 73430 Aalen, Germany", "place_id": "ChIJG2I9yYAbmUcRZH3_GDiEt8M", "location_type": "ROOFTOP", "error": null, "requested_at": "2026-03-01T11:11:07.616212+00:00"}
{"query_text": "Weidenfelder Str. 1, Aalen, 73430", "status": "OK", "lat": 48.8398841, "lon": 10.0923488, "formatted_address": "Weidenfelder Str. 1, 73430 Aalen, Germany", "place_id": "ChIJ_wOBtYcbmUcRxZjc5hRn3lU", "location_type": "ROOFTOP", "error": null, "requested_at": "2026-03-01T11:11:07.946417+00:00"}
{"query_text": "Nordhäuser Str. 31, Unterschneidheim, 73485", "status": "OK", "lat": 48.94249629999999, "lon": 10.3676669, "formatted_address": "Nordhäuser Str. 31, 73485 Unterschneidheim, Germany", "place_id": "ChIJ1_Q-I9nemEcRWdXNb1s9kAM", "location_type": "ROOFTOP", "error": null, "requested_at": "2026-03-01T11:11:08.285582+00:00"}
{"query_text": "Aalener Str. 1, Essingen, 73457", "status": "OK", "lat": 48.810204, "lon": 10.0298779, "formatted_address": "Aalener Str. 1, 73457 Essingen, Germany", "place_id": "ChIJB4qsZSkbmUcRGaKEnSarAQQ", "location_type": "ROOFTOP", "error": null, "requested_at": "2026-03-01T11:11:08.617918+00:00"}
{"query_text": "Schillerstr. 8, Hermaringen, 89568", "status": "OK", "lat": 48.5941091, "lon": 10.2597721, "formatted_address": "Schillerstraße 8, 89568 Hermaringen, Germany", "place_id": "ChIJy2oJorI4mUcRywnuRcW-Feo", "location_type": "ROOFTOP", "error": null, "requested_at": "2026-03-01T11:11:08.910858+00:00"}
{"query_text": "Ringstr. 60, Bopfingen, 73441", "status": "OK", "lat": 48.9061675, "lon": 10.3585041, "formatted_address": "Ringstraße 60, 73441 Bopfingen, Germany", "place_id": "ChIJZet-blrfmEcRrKnU1gnLXIE", "location_type": "ROOFTOP", "error": null, "requested_at": "2026-03-01T11:11:09.252088+00:00"}
{"query_text": "St.-Ida-Str. 9, Illerkirchberg, 89171", "status": "OK", "lat": 48.3204398, "lon": 10.0159386, "formatted_address": "St. Ida Str. 9, 89171 Illerkirchberg, Germany", "place_id": "ChIJjc8bnFdgmUcRpGr_xk73ztU", "location_type": "ROOFTOP", "error": null, "requested_at": "2026-03-01T11:11:09.580274+00:00"}
{"query_text": "Weilerstr. 8, Aalen, 73434", "status": "OK", "lat": 48.8318534, "lon": 10.0685238, "formatted_address": "Weilerstraße 8, 73434 Aalen, Germany", "place_id": "ChIJz0UUxm8bmUcRQTCAQ7EiDsw", "location_type": "ROOFTOP", "error": null, "requested_at": "2026-03-01T11:11:09.914979+00:00"}
{"query_text": "Gmünder Str. 13, Aalen, 73430", "status": "OK", "lat": 48.8366025, "lon": 10.0919042, "formatted_address": "Gmünder Str. 13, 73430 Aalen, Germany", "place_id": "ChIJI5erAoQbmUcR5sQtqPspAeU", "location_type": "ROOFTOP", "error": null, "requested_at": "2026-03-01T11:11:10.251578+00:00"}
{"query_text": "Friedhofstr. 1/1, Aalen, 73430", "status": "OK", "lat": 48.8374426, "lon": 10.0914898, "formatted_address": "Friedhofstraße 1/1, 73430 Aalen, Germany", "place_id": "ChIJ9Ri4UoEbmUcR0NK-H3H1awM", "location_type": "ROOFTOP", "error": null, "requested_at": "2026-03-01T11:11:10.592459+00:00"}
{"query_text": "Tauchenweiler Str. 9, Essingen, 73457", "status": "OK", "lat": 48.8057283, "lon": 10.0276619, "formatted_address": "Tauchenweilerstraße 9, 73457 Essingen, Germany", "place_id": "ChIJX6xi4NUamUcRuLRVMJSmLgE", "location_type": "ROOFTOP", "error": null, "requested_at": "2026-03-01T11:11:10.920947+00:00"}
{"query_text": "Itterstr. 9, Eberbach, 69412", "status": "OK", "lat": 49.46613319999999, "lon": 8.9816729, "formatted_address": "Itterstraße 9, 69412 Eberbach, Germany", "place_id": "ChIJR63CItPvl0cR2Qj2eKi6NSc", "location_type": "ROOFTOP", "error": null, "requested_at": "2026-03-01T11:11:11.247380+00:00"}
{"query_text": "Franz-Sigel-Str. 83, Bruchsal, 76646", "status": "OK", "lat": 49.1123751, "lon": 8.5695576, "formatted_address": "Franz-Sigel-Straße 83, 76646 Bruchsal, Germany", "place_id": "ChIJx8W3TEuhl0cRpW4dzuLCYR0", "location_type": "ROOFTOP", "error": null, "requested_at": "2026-03-01T11:11:11.575118+00:00"}
{"query_text": "Deidesheimer Str. 11-13, Mannheim, 68309", "status": "OK", "lat": 49.5057911, "lon": 8.510589, "formatted_address": "Deidesheimer Str. 11-13, 68309 Mannheim, Germany", "place_id": "ChIJqStrdl7Ol0cRxeH_MgtNJlA", "location_type": "ROOFTOP", "error": null, "requested_at": "2026-03-01T11:11:11.900974+00:00"}
{"query_text": "Beckstr. 13, Eberbach, 69412", "status": "OK", "lat": 49.4597371, "lon": 8.9833234, "formatted_address": "Beckstraße 13, 69412 Eberbach, Germany", "place_id": "ChIJWe6vWCnul0cRwx_3d7q6Drk", "location_type": "ROOFTOP", "error": null, "requested_at": "2026-03-01T11:11:12.234781+00:00"}
{"query_text": "Mannheimer Str. 72, Mannheim, 68309", "status": "OK", "lat": 49.50714989999999, "lon": 8.5102776, "formatted_address": "Mannheimer Str. 72, 68309 Mannheim, Germany", "place_id": "ChIJX5rTlF3Ol0cR6npRjTX8-Nc", "location_type": "ROOFTOP", "error": null, "requested_at": "2026-03-01T11:11:12.556038+00:00"}
{"query_text": "Bahnhofsplatz 4, Eberbach, 69412", "status": "OK", "lat": 49.4652835, "lon": 8.983179699999999, "formatted_address": "Bahnhofspl. 4, 69412 Eberbach, Germany", "place_id": "ChIJa83BUdPvl0cRjr-MH1T7eho", "location_type": "ROOFTOP", "error": null, "requested_at": "2026-03-01T11:11:12.888196+00:00"}
{"query_text": "Happenweiler Str. 15 a, Immenstaad am Bodensee, 88090", "status": "OK", "lat": 47.6686336, "lon": 9.3695179, "formatted_address": "Happenweilerstraße 15a, 88090 Immenstaad am Bodensee, Germany", "place_id": "ChIJx6q6sAj_mkcR-lG9JCWm7Eo", "location_type": "ROOFTOP", "error": null, "requested_at": "2026-03-01T11:11:13.176197+00:00"}
{"query_text": "Bussemerstr. 9, Eberbach, 69412", "status": "OK", "lat": 49.4640881, "lon": 8.9841186, "formatted_address": "Bussemerstraße 9, 69412 Eberbach, Germany", "place_id": "ChIJVQRvWivul0cRieT2VE4xwu8", "location_type": "ROOFTOP", "error": null, "requested_at": "2026-03-01T11:11:13.484863+00:00"}
{"query_text": "Friedrichstr. 1, Eberbach, 69412", "status": "OK", "lat": 49.46284379999999, "lon": 8.9838379, "formatted_address": "Friedrichstraße 1, 69412 Eberbach, Germany", "place_id": "ChIJK425eivul0cRo41eA9Fm6jo", "location_type": "ROOFTOP", "error": null, "requested_at": "2026-03-01T11:11:13.825220+00:00"}
{"query_text": "Auf dem Sand 76 B, Mannheim, 68309", "status": "OK", "lat": 49.5146818, "lon": 8.509476800000002, "formatted_address": "Auf dem Sand 76B, 68309 Mannheim, Germany", "place_id": "ChIJkyNZv2nOl0cRSZ1VUchlF14", "location_type": "ROOFTOP", "error": null, "requested_at": "2026-03-01T11:11:14.122982+00:00"}
{"query_text": "Kirchstr. 3, Gerlingen, 70839", "status": "OK", "lat": 48.7991818, "lon": 9.0631373, "formatted_address": "Kirchstraße 3, 70839 Gerlingen, Germany", "place_id": "ChIJy44fGHPZmUcRkU__ejz-Cos", "location_type": "ROOFTOP", "error": null, "requested_at": "2026-03-01T11:11:14.411678+00:00"}
{"query_text": "Hauptstr. 54, Gerlingen, 70839", "status": "OK", "lat": 48.7980655, "lon": 9.062953199999999, "formatted_address": "Hauptstraße 54, 70839 Gerlingen, Germany", "place_id": "ChIJXe9N5nLZmUcRbJ9uIoR30Mw", "location_type": "ROOFTOP", "error": null, "requested_at": "2026-03-01T11:11:14.746459+00:00"}
{"query_text": "Uhlandstr. 54, Singen (Hohentwiel), 78224", "status": "OK", "lat": 47.7687651, "lon": 8.8402766, "formatted_address": "Uhlandstraße 54, 78224 Singen (Hohentwiel), Germany", "place_id": "ChIJZZyPuDx9mkcRDx4Q6jembrQ", "location_type": "ROOFTOP", "error": null, "requested_at": "2026-03-01T11:11:15.072156+00:00"}
{"query_text": "Mühlstr. 1, Riederich, 72585", "status": "OK", "lat": 48.5604781, "lon": 9.2699353, "formatted_address": "Mühlstraße 1, 72585 Riederich, Germany", "place_id": "ChIJi8nl6_bsmUcRuLQsQ7B7iV0", "location_type": "ROOFTOP", "error": null, "requested_at": "2026-03-01T11:11:15.367617+00:00"}
{"query_text": "St.-Martin-Str. 3/1, Mengen, 88512", "status": "OK", "lat": 48.0496321, "lon": 9.32973, "formatted_address": "St.-Martin-Straße 3/1, 88512 Mengen, Germany", "place_id": "ChIJLXP12Dk4mkcRTy5mXVTSVbs", "location_type": "ROOFTOP", "error": null, "requested_at": "2026-03-01T11:11:15.702661+00:00"}
{"query_text": "Wehrdstr. 7, Singen (Hohentwiel), 78224", "status": "OK", "lat": 47.7564235, "lon": 8.839146999999999, "formatted_address": "Wehrdstraße 7, 78224 Singen (Hohentwiel), Germany", "place_id": "ChIJ2Y31w0Z9mkcRtCxEvu5ABl8", "location_type": "ROOFTOP", "error": null, "requested_at": "2026-03-01T11:11:16.039816+00:00"}
{"query_text": "Hauptstr. 56, Mengen, 88512", "status": "OK", "lat": 48.0502646, "lon": 9.3312329, "formatted_address": "Hauptstr. 56, 88512 Mengen, Germany", "place_id": "ChIJ26c0RTc4mkcROqFTaOdnht4", "location_type": "ROOFTOP", "error": null, "requested_at": "2026-03-01T11:11:16.370127+00:00"}
{"query_text": "Alte Str. 15, Mengen, 88512", "status": "OK", "lat": 48.0512642, "lon": 9.3311332, "formatted_address": "Alte Str. 15, 88512 Mengen, Germany", "place_id": "ChIJBbNcPDc4mkcRAqC02cI-6Hs", "location_type": "ROOFTOP", "error": null, "requested_at": "2026-03-01T11:11:16.702560+00:00"}
{"query_text": "Kirchstr. 20, Aspach, 71546", "status": "OK", "lat": 48.99160579999999, "lon": 9.362226699999999, "formatted_address": "Kirchstraße 20, 71546 Aspach, Germany", "place_id": "ChIJN_sDOKk0mEcRD9UkKZmH1UQ", "location_type": "ROOFTOP", "error": null, "requested_at": "2026-03-01T11:11:17.037358+00:00"}
{"query_text": "Im Hummerholz 6, Leutenbach, 71397", "status": "OK", "lat": 48.8985457, "lon": 9.3676667, "formatted_address": "Im Hummerholz 6, 71397 Leutenbach, Germany", "place_id": "ChIJ9V6BgHzJmUcRfN6JcGR22Dk", "location_type": "ROOFTOP", "error": null, "requested_at": "2026-03-01T11:11:17.357279+00:00"}
{"query_text": "Thurgauer Str. 4, Singen (Hohentwiel), 78224", "status": "OK", "lat": 47.7610241, "lon": 8.8413915, "formatted_address": "Thurgauer Str. 4, 78224 Singen (Hohentwiel), Germany", "place_id": "ChIJcTJr7Dh9mkcR2qbDYfA4Kow", "location_type": "ROOFTOP", "error": null, "requested_at": "2026-03-01T11:11:17.681828+00:00"}
{"query_text": "Wagensteigstr. 11, St. Märgen, 79274", "status": "OK", "lat": 48.0070873, "lon": 8.0913445, "formatted_address": "Wagensteigstraße 11, 79274 St. Märgen, Germany", "place_id": "ChIJu58y3EzkkEcRlUL-1IC6auM", "location_type": "ROOFTOP", "error": null, "requested_at": "2026-03-01T11:11:18.007863+00:00"}
{"query_text": "Marktplatz 9 a, Langenau, 89129", "status": "OK", "lat": 48.4994416, "lon": 10.1205727, "formatted_address": "Marktpl. 9a, 89129 Langenau, Germany", "place_id": "ChIJu6u0GgpCmUcRjgbHRUr_9QY", "location_type": "ROOFTOP", "error": null, "requested_at": "2026-03-01T11:11:18.297029+00:00"}
{"query_text": "Kuftenstraße 17/1, Langenau, 89129", "status": "OK", "lat": 48.49751269999999, "lon": 10.1217885, "formatted_address": "Kuftenstraße 17/1, 89129 Langenau, Germany", "place_id": "ChIJz5CoVwpCmUcRgfo1yEb4OTg", "location_type": "ROOFTOP", "error": null, "requested_at": "2026-03-01T11:11:18.583464+00:00"}
{"query_text": "Sirgensteinstr. 2, Vogt, 88267", "status": "OK", "lat": 47.7764732, "lon": 9.769442200000002, "formatted_address": "Sirgensteinstraße 2, 88267 Vogt, Germany", "place_id": "ChIJNxRcL4Sjm0cReITOy6uu1xY", "location_type": "ROOFTOP", "error": null, "requested_at": "2026-03-01T11:11:18.910193+00:00"}
{"query_text": "Theodor-Storm-Str. 16, Albstadt, 72461", "status": "OK", "lat": 48.2828428, "lon": 9.000966, "formatted_address": "Theodor-Storm-Straße 16, 72461 Albstadt, Germany", "place_id": "ChIJtQOgCqEEmkcRRzu7vBOOVr8", "location_type": "ROOFTOP", "error": null, "requested_at": "2026-03-01T11:11:19.198917+00:00"}
{"query_text": "Weilimdorfer Str. 33, Gerlingen, 70839", "status": "OK", "lat": 48.8012476, "lon": 9.0677679, "formatted_address": "Weilimdorfer Str. 33, 70839 Gerlingen, Germany", "place_id": "ChIJRSCID3TZmUcRzxiFyLEMEfk", "location_type": "ROOFTOP", "error": null, "requested_at": "2026-03-01T11:11:19.495546+00:00"}
{"query_text": "Weilimdorfer Str. 20, Gerlingen, 70839", "status": "OK", "lat": 48.8007116, "lon": 9.0671758, "formatted_address": "Weilimdorfer Str. 20, 70839 Gerlingen, Germany", "place_id": "ChIJU-YO9nPZmUcR8oKhWKRicb4", "location_type": "ROOFTOP", "error": null, "requested_at": "2026-03-01T11:11:19.794839+00:00"}
{"query_text": "Bahnhofstr. 9, Essingen, 73457", "status": "OK", "lat": 48.809448, "lon": 10.0269848, "formatted_address": "Bahnhofstraße 9, 73457 Essingen, Germany", "place_id": "ChIJzQnhTCobmUcR193KDjfjN08", "location_type": "ROOFTOP", "error": null, "requested_at": "2026-03-01T11:11:20.125539+00:00"}
{"query_text": "Enge Str. 6, Singen (Hohentwiel), 78224", "status": "OK", "lat": 47.75892469999999, "lon": 8.8383108, "formatted_address": "Enge Str. 6, 78224 Singen (Hohentwiel), Germany", "place_id": "ChIJpX1esUB9mkcRpkASEnVIsjw", "location_type": "ROOFTOP", "error": null, "requested_at": "2026-03-01T11:11:20.418149+00:00"}
{"query_text": "Steinlachstr. 19, Mössingen, 72116", "status": "OK", "lat": 48.3816015, "lon": 9.1068298, "formatted_address": "Steinlachstraße 19, 72116 Mössingen, Germany", "place_id": "ChIJEU9fIkv2mUcRGA0-IZhZCto", "location_type": "ROOFTOP", "error": null, "requested_at": "2026-03-01T11:11:20.713612+00:00"}
{"query_text": "Freiheitstr. 15-17, Singen (Hohentwiel), 78224", "status": "OK", "lat": 47.7626573, "lon": 8.837111, "formatted_address": "Freiheitstraße 15 - 17, 78224 Singen (Hohentwiel), Germany", "place_id": "ChIJXeCz_j59mkcRmtRtqJnfBkw", "location_type": "ROOFTOP", "error": null, "requested_at": "2026-03-01T11:11:21.045175+00:00"}
{"query_text": "Hauptstr. 38, Mengen, 88512", "status": "OK", "lat": 48.0509013, "lon": 9.332147599999999, "formatted_address": "Hauptstr. 38, 88512 Mengen, Germany", "place_id": "ChIJBXUgNTc4mkcRavxIhrgSu78", "location_type": "ROOFTOP", "error": null, "requested_at": "2026-03-01T11:11:21.370062+00:00"}
{"query_text": "Espachstr. 3, Erolzheim, 88453", "status": "OK", "lat": 48.09578940000001, "lon": 10.0759637, "formatted_address": "Espachstraße 3, 88453 Erolzheim, Germany", "place_id": "ChIJzVV_kMrom0cRpkqak9IDOns", "location_type": "ROOFTOP", "error": null, "requested_at": "2026-03-01T11:11:21.662581+00:00"}
{"query_text": "Mittelöschstraße 5, Ravensburg, 88213", "status": "OK", "lat": 47.7808834, "lon": 9.588020499999999, "formatted_address": "Mittelöschstraße 5, 88213 Ravensburg, Germany", "place_id": "ChIJs0Im0-qum0cRZFN9BiXt_Qg", "location_type": "ROOFTOP", "error": null, "requested_at": "2026-03-01T11:11:21.947365+00:00"}
{"query_text": "Hadwigstr. 11, Singen (Hohentwiel), 78224", "status": "OK", "lat": 47.7608669, "lon": 8.8397649, "formatted_address": "Hadwigstraße 11, 78224 Singen (Hohentwiel), Germany", "place_id": "ChIJB2ILtjh9mkcR1iQLLJG_MiI", "location_type": "ROOFTOP", "error": null, "requested_at": "2026-03-01T11:11:22.240927+00:00"}
{"query_text": "Ekkehardstr. 9, Singen (Hohentwiel), 78224", "status": "OK", "lat": 47.7618642, "lon": 8.8380055, "formatted_address": "Ekkehardstraße 9, 78224 Singen (Hohentwiel), Germany", "place_id": "ChIJ_wF4Ij99mkcRnuX57Phcq40", "location_type": "ROOFTOP", "error": null, "requested_at": "2026-03-01T11:11:22.570045+00:00"}
{"query_text": "Bruderhofstr. 4, Singen (Hohentwiel), 78224", "status": "OK", "lat": 47.7748855, "lon": 8.8357082, "formatted_address": "Bruderhofstraße 4, 78224 Singen (Hohentwiel), Germany", "place_id": "ChIJL1Qyyxh9mkcRQmIyNJbPslU", "location_type": "ROOFTOP", "error": null, "requested_at": "2026-03-01T11:11:22.897902+00:00"}
{"query_text": "Kirchstr. 61, Nordheim, 74226", "status": "OK", "lat": 49.1081084, "lon": 9.132078300000002, "formatted_address": "Kirchstraße 61, 74226 Nordheim, Germany", "place_id": "ChIJC2l7qqEpmEcR9aGCLgon2SI", "location_type": "ROOFTOP", "error": null, "requested_at": "2026-03-01T11:11:23.224900+00:00"}
{"query_text": "Imenstr. 4, Nordheim, 74226", "status": "OK", "lat": 49.1064069, "lon": 9.131287700000001, "formatted_address": "Imenstraße 4, 74226 Nordheim, Germany", "place_id": "ChIJIYp6zqEpmEcR86Ld-yUF40c", "location_type": "ROOFTOP", "error": null, "requested_at": "2026-03-01T11:11:23.520678+00:00"}
{"query_text": "Prof.-Schumacher-Str. 2/8, Osterburken, 74706", "status": "OK", "lat": 49.4286484, "lon": 9.4230322, "formatted_address": "Prof.-Schumacher-Straße 2-8, 74706 Osterburken, Germany", "place_id": "ChIJAQCwvooQmEcRjzCJAvmX-o4", "location_type": "ROOFTOP", "error": null, "requested_at": "2026-03-01T11:11:23.849884+00:00"}
{"query_text": "Fasanenplatz 1, Stuttgart, 70499", "status": "OK", "lat": 48.81647419999999, "lon": 9.0862299, "formatted_address": "Fasanenpl. 1, 70499 Stuttgart, Germany", "place_id": "ChIJ7bU2LY_ZmUcRdKEdjMgsl1k", "location_type": "ROOFTOP", "error": null, "requested_at": "2026-03-01T11:11:24.195232+00:00"}
{"query_text": "Klosterstr. 14, Rot an der Rot, 88430", "status": "OK", "lat": 48.0138054, "lon": 10.0286214, "formatted_address": "Klosterstraße 14, 88430 Rot an der Rot, Germany", "place_id": "ChIJcxiIw5brm0cRS3S2kvF5lig", "location_type": "ROOFTOP", "error": null, "requested_at": "2026-03-01T11:11:24.483733+00:00"}
{"query_text": "Leintalstr. 21, Aalen, 73434", "status": "OK", "lat": 48.8705703, "lon": 10.0235955, "formatted_address": "Leintalstraße 21, 73434 Aalen, Germany", "place_id": "ChIJTWS2Jj8DmUcR_MBd0F266P8", "location_type": "ROOFTOP", "error": null, "requested_at": "2026-03-01T11:11:24.786551+00:00"}
{"query_text": "Mündelstr. 29, Illerkirchberg, 89171", "status": "OK", "lat": 48.3197599, "lon": 10.0219099, "formatted_address": "Mündelstraße 29, 89171 Illerkirchberg, Germany", "place_id": "ChIJM4ES31hgmUcRhgEqkK04Uh0", "location_type": "ROOFTOP", "error": null, "requested_at": "2026-03-01T11:11:25.094643+00:00"}
{"query_text": "Untere Brunnengasse 9, Neudenau, 74861", "status": "OK", "lat": 49.2916438, "lon": 9.269917, "formatted_address": "u. Brunnengasse 9, 74861 Neudenau, Germany", "place_id": "ChIJOaTeBDkimEcRzRjVf6FUGHU", "location_type": "ROOFTOP", "error": null, "requested_at": "2026-03-01T11:11:25.389816+00:00"}
{"query_text": "Tüngentaler Str. 66, Schwäbisch Hall, 74523", "status": "OK", "lat": 49.1128818, "lon": 9.7523883, "formatted_address": "Tüngentaler Str. 66, 74523 Schwäbisch Hall, Germany", "place_id": "ChIJ0SQHsnlQmEcRxyWjHcAJ-i0", "location_type": "ROOFTOP", "error": null, "requested_at": "2026-03-01T11:11:25.719209+00:00"}
{"query_text": "Kellereistr. 12, Osterburken, 74706", "status": "OK", "lat": 49.42975, "lon": 9.42644, "formatted_address": "Kellereistraße 12, 74706 Osterburken, Germany", "place_id": "ChIJ2wuWjF8QmEcRzuQQ3ZrcXLU", "location_type": "ROOFTOP", "error": null, "requested_at": "2026-03-01T11:11:26.052680+00:00"}
{"query_text": "Markdorfer Str. 2, Bermatingen, 88697", "status": "OK", "lat": 47.730115, "lon": 9.3499228, "formatted_address": "Markdorfer Str. 2, 88697 Bermatingen, Germany", "place_id": "ChIJOR8Ya9dVmkcRdPB_4SKC7O0", "location_type": "ROOFTOP", "error": null, "requested_at": "2026-03-01T11:11:26.394251+00:00"}
{"query_text": "Wattgraben 5, Immenstaad am Bodensee, 88090", "status": "OK", "lat": 47.6644036, "lon": 9.3641931, "formatted_address": "Wattgraben 5, 88090 Immenstaad am Bodensee, Germany", "place_id": "ChIJ4y7OigT_mkcR8ODOCj86B1g", "location_type": "ROOFTOP", "error": null, "requested_at": "2026-03-01T11:11:26.686620+00:00"}
{"query_text": "Karlsbad 30, Bad Mergentheim, 97980", "status": "OK", "lat": 49.4937585, "lon": 9.7817978, "formatted_address": "Karlsbad 30, 97980 Bad Mergentheim, Germany", "place_id": "ChIJOx4bExtxmEcRIU9hsxFgJm0", "location_type": "ROOFTOP", "error": null, "requested_at": "2026-03-01T11:11:27.014112+00:00"}
{"query_text": "Hofherrnstr. 50, Aalen, 73434", "status": "OK", "lat": 48.83513809999999, "lon": 10.0654539, "formatted_address": "Hofherrnstraße 50, 73434 Aalen, Germany", "place_id": "ChIJ9bTp6GUbmUcRHDwaCJBjoF8", "location_type": "ROOFTOP", "error": null, "requested_at": "2026-03-01T11:11:27.301199+00:00"}
{"query_text": "Schulstr. 27, Oberwolfach, 77709", "status": "OK", "lat": 48.3171828, "lon": 8.218886099999999, "formatted_address": "Schulstraße 27, 77709 Oberwolfach, Germany", "place_id": "ChIJXbroLcXRkEcRlNrX4jYpQEw", "location_type": "ROOFTOP", "error": null, "requested_at": "2026-03-01T11:11:27.591809+00:00"}
{"query_text": "Obere Str. 17, Rot an der Rot, 88430", "status": "OK", "lat": 48.0120906, "lon": 10.0275681, "formatted_address": "Ob. Str. 17, 88430 Rot an der Rot, Germany", "place_id": "ChIJqT5zPpfrm0cRF1RuYQJ60wY", "location_type": "ROOFTOP", "error": null, "requested_at": "2026-03-01T11:11:27.932105+00:00"}
{"query_text": "Weiherwehr 6, Wört, 73499", "status": "OK", "lat": 49.0314233, "lon": 10.2734986, "formatted_address": "Weiherwehr 6, 73499 Wört, Germany", "place_id": "ChIJnV9DeKjnmEcR_eAV2_lR6-c", "location_type": "ROOFTOP", "error": null, "requested_at": "2026-03-01T11:11:28.224568+00:00"}
{"query_text": "Hardtstr. 9, Leinzell, 73575", "status": "OK", "lat": 48.84985020000001, "lon": 9.8750471, "formatted_address": "Hardtstraße 9, 73575 Leinzell, Germany", "place_id": "ChIJ4YPLFiYHmUcR0dl38enPBM0", "location_type": "ROOFTOP", "error": null, "requested_at": "2026-03-01T11:11:28.554167+00:00"}
{"query_text": "Beizkoferstr. 19, Mengen, 88512", "status": "OK", "lat": 48.0490427, "lon": 9.3379982, "formatted_address": "88512 Mengen-Rulfingen, Germany", "place_id": "ChIJqXnUnz84mkcREHySDLtrHxw", "location_type": "APPROXIMATE", "error": null, "requested_at": "2026-03-01T11:11:28.915756+00:00"}
{"query_text": "Eichendorffstr. 53, Sulzbach an der Murr, 71560", "status": "OK", "lat": 49.0068487, "lon": 9.510383899999999, "formatted_address": "Eichendorffstraße 53, 71560 Sulzbach an der Murr, Germany", "place_id": "ChIJN1TGj_tKmEcRnmRsiWNreVE", "location_type": "ROOFTOP", "error": null, "requested_at": "2026-03-01T11:11:29.210355+00:00"}
{"query_text": "Jarekstr. 13, Biberach an der Riß, 88400", "status": "OK", "lat": 48.0998102, "lon": 9.7683932, "formatted_address": "Jarekstraße 13, 88400 Biberach an der Riß, Germany", "place_id": "ChIJX6Zlwn7Pm0cResXsp_NU7VY", "location_type": "ROOFTOP", "error": null, "requested_at": "2026-03-01T11:11:29.541361+00:00"}
{"query_text": "Komberger Weg 19, Schwäbisch Hall, 74523", "status": "OK", "lat": 49.1151733, "lon": 9.7505807, "formatted_address": "Komberger Weg 19, 74523 Schwäbisch Hall, Germany", "place_id": "ChIJlymY93dQmEcRaSCMO7te8AE", "location_type": "ROOFTOP", "error": null, "requested_at": "2026-03-01T11:11:29.868658+00:00"}
{"query_text": "Akazienweg 5, Göggingen, 73571", "status": "OK", "lat": 48.85824849999999, "lon": 9.8774789, "formatted_address": "Akazienweg 5, 73571 Göggingen, Germany", "place_id": "ChIJlXI6eCsHmUcRzSFtVdcM-50", "location_type": "ROOFTOP", "error": null, "requested_at": "2026-03-01T11:11:30.189798+00:00"}
{"query_text": "Ostalbstr. 65, Bopfingen, 73441", "status": "OK", "lat": 48.84349, "lon": 10.39995, "formatted_address": "Ostalbstraße 65, 73441 Bopfingen, Germany", "place_id": "ChIJo_lyvfcmmUcRAuDc5_lycD4", "location_type": "ROOFTOP", "error": null, "requested_at": "2026-03-01T11:11:30.524737+00:00"}
{"query_text": "Marktstraße 2, Schelklingen, 89601", "status": "OK", "lat": 48.375791, "lon": 9.732010400000002, "formatted_address": "Marktstraße 2, 89601 Schelklingen, Germany", "place_id": "ChIJC7GUpMV-mUcRdS8LkZvbke0", "location_type": "ROOFTOP", "error": null, "requested_at": "2026-03-01T11:11:30.853172+00:00"}
{"query_text": "Friedrichsfelder Str. 49, Edingen-Neckarhausen, 68535", "status": "OK", "lat": 49.4470269, "lon": 8.6062791, "formatted_address": "Friedrichsfelder Str. 49, 68535 Edingen-Neckarhausen, Germany", "place_id": "ChIJC8dZsHDGl0cRcfPCJnDV2_4", "location_type": "ROOFTOP", "error": null, "requested_at": "2026-03-01T11:11:31.190875+00:00"}
{"query_text": "Lessingstr. 14, Unterschneidheim, 73485", "status": "OK", "lat": 48.9423412, "lon": 10.3667169, "formatted_address": "Lessingstraße 14, 73485 Unterschneidheim, Germany", "place_id": "ChIJY3atLtnemEcR_swX9Ud7i7w", "location_type": "ROOFTOP", "error": null, "requested_at": "2026-03-01T11:11:31.520590+00:00"}
{"query_text": "Hauptstr. 30, Schriesheim, 69198", "status": "OK", "lat": 49.4867461, "lon": 8.736971, "formatted_address": "Hauptstraße 30, 69198 Schriesheim, Germany", "place_id": "ChIJcxeRLv7Cl0cR57VkFCdyciM", "location_type": "ROOFTOP", "error": null, "requested_at": "2026-03-01T11:11:31.846354+00:00"}
